$GPGGA,084911.00,3727.034197,N,12639.330966,E,1,21,0.4,34.0,M,17.7,M,,*57
$PGLOR,9,STA,084911.00,0.001,0.000,395,1,4,0,P,S,L,0,C,3,S,00180002,66,5,R,000833F4,TPEF,31,1229227,LC,,,*66
$GPGSV,3,1,11,32,82,112,43,14,72,327,41,25,56,050,38,31,53,297,47*77
$GPGSV,3,2,11,29,27,113,42,26,26,218,39,10,22,193,37,22,19,308,41*7A
$GPGSV,3,3,11,12,17,042,42,03,07,324,37,18,01,173,*44
$GLGSV,2,1,08,69,64,292,37,79,62,331,40,68,48,181,38,80,22,255,35*6C
$GLGSV,2,2,08,70,13,331,36,88,12,079,34,87,08,034,36,81,02,125,*6E
$QZGSV,1,1,01,02,80,041,37*5F
$BDGSV,2,1,08,209,75,277,36,206,69,177,,207,69,254,11,203,42,205,25*69
$BDGSV,2,2,08,202,27,236,25,205,08,255,35,217,,,14,204,34,133,*5F
$GAGSV,2,1,06,103,73,222,,102,50,253,,108,36,311,,105,30,157,*60
$GAGSV,2,2,06,112,02,059,,130,01,239,*69
$GPGSA,A,3,03,10,12,14,22,25,26,29,31,32,,,1.6,1.1,1.1*3A
$GNGSA,A,3,03,10,12,14,22,25,26,29,31,32,,,1.6,1.1,1.1*24
$GNGSA,A,3,68,69,70,79,80,87,88,,,,,,1.6,1.1,1.1*24
$QZGSA,A,3,02,,,,,,,,,,,,1.6,1.1,1.1*2B
$IMGSA,A,3,,,,,,,,,,,,,1.6,1.1,1.1*26
$BDGSA,A,3,202,203,209,,,,,,,,,,1.6,1.1,1.1*1E
$GAGSA,A,3,,,,,,,,,,,,,1.6,1.1,1.1*24
$GPRMC,084911.00,A,3727.034197,N,12639.330966,E,000.2,,281217,,,A*77
$GPGGA,084912.00,3727.034162,N,12639.330933,E,1,21,0.4,34.0,M,17.7,M,,*5E
$PGLOR,9,STA,084912.00,0.001,0.000,395,1,4,0,P,S,L,0,C,3,S,00180002,66,5,R,000833F4,TPEF,31,1230227,LC,,,*6D
$GPGSV,3,1,11,32,82,112,42,14,72,327,41,25,56,050,38,31,53,297,46*77
$GPGSV,3,2,11,29,27,113,41,26,26,218,39,10,22,193,36,22,19,308,41*78
$GPGSV,3,3,11,12,17,042,44,03,07,324,37,18,01,173,*42
$GLGSV,2,1,08,69,64,292,37,79,62,331,40,68,48,181,38,80,22,255,35*6C
$GLGSV,2,2,08,70,13,331,36,88,13,079,34,87,08,034,36,81,02,125,*6F
$QZGSV,1,1,01,02,80,041,37*5F
$BDGSV,2,1,08,209,75,277,36,206,69,177,,207,69,254,11,203,42,205,25*69
$BDGSV,2,2,08,202,27,236,25,205,08,255,35,217,,,,204,34,133,*5A
$GAGSV,2,1,06,103,73,222,,102,50,253,,108,36,311,,105,30,157,*60
$GAGSV,2,2,06,112,02,059,,130,01,239,*69
$GPGSA,A,3,03,10,12,14,22,25,26,29,31,32,,,1.6,1.1,1.1*3A
$GNGSA,A,3,03,10,12,14,22,25,26,29,31,32,,,1.6,1.1,1.1*24
$GNGSA,A,3,68,69,70,79,80,87,88,,,,,,1.6,1.1,1.1*24
$QZGSA,A,3,02,,,,,,,,,,,,1.6,1.1,1.1*2B
$IMGSA,A,3,,,,,,,,,,,,,1.6,1.1,1.1*26
$BDGSA,A,3,202,203,209,,,,,,,,,,1.6,1.1,1.1*1E
$GAGSA,A,3,,,,,,,,,,,,,1.6,1.1,1.1*24
$GPRMC,084912.00,A,3727.034162,N,12639.330933,E,000.1,,281217,,,A*7D
$GPGGA,084913.00,3727.034129,N,12639.330895,E,1,22,0.4,34.0,M,17.7,M,,*5E
$PGLOR,9,STA,084913.00,0.001,0.000,395,1,4,0,P,S,L,0,C,3,S,00180002,66,5,R,000833F4,TPEF,31,1231227,LC,,,*6D
$GPGSV,3,1,11,32,82,112,41,14,72,327,40,25,56,050,39,31,53,297,46*74
$GPGSV,3,2,11,29,27,113,41,26,26,218,38,10,22,193,36,22,19,308,44*7C
$GPGSV,3,3,11,12,17,042,43,03,07,324,37,18,01,173,*45
$GLGSV,2,1,08,69,64,292,36,79,62,331,40,68,48,181,39,80,22,255,35*6C
$GLGSV,2,2,08,70,13,331,35,88,13,079,34,87,08,034,36,81,02,125,*6C
$QZGSV,1,1,01,02,80,041,37*5F
$BDGSV,2,1,08,209,75,277,36,207,69,254,11,206,68,177,11,203,42,205,24*69
$BDGSV,2,2,08,202,27,236,26,205,08,255,35,217,,,,204,34,133,*59
$GAGSV,2,1,06,103,73,222,,102,50,253,,108,36,311,,105,30,157,17*66
$GAGSV,2,2,06,112,02,059,,130,01,239,*69
$GPGSA,A,3,03,10,12,14,22,25,26,29,31,32,,,2.0,1.3,1.5*39
$GNGSA,A,3,03,10,12,14,22,25,26,29,31,32,,,2.0,1.3,1.5*27
$GNGSA,A,3,68,69,70,79,80,87,88,,,,,,2.0,1.3,1.5*27
$QZGSA,A,3,02,,,,,,,,,,,,2.0,1.3,1.5*28
$IMGSA,A,3,,,,,,,,,,,,,2.0,1.3,1.5*25
$BDGSA,A,3,202,203,209,,,,,,,,,,2.0,1.3,1.5*1D
$GAGSA,A,3,105,,,,,,,,,,,,2.0,1.3,1.5*13
$GPRMC,084913.00,A,3727.034129,N,12639.330895,E,000.0,,281217,,,A*7F
$GPGGA,084914.00,3727.034088,N,12639.330845,E,1,21,0.4,34.0,M,17.7,M,,*5D
$PGLOR,9,STA,084914.00,0.001,0.000,395,1,4,0,P,S,L,0,C,3,S,00180002,66,5,R,000833F4,TPEF,31,1232227,LC,,,*69
$GPGSV,3,1,11,32,82,112,41,14,72,327,40,25,56,050,41,31,53,297,45*78
$GPGSV,3,2,11,29,27,113,41,26,26,218,38,10,22,193,36,22,19,308,45*7D
$GPGSV,3,3,11,12,17,042,43,03,07,324,37,18,01,173,*45
$GLGSV,2,1,08,69,64,292,36,79,62,331,39,68,48,181,38,80,22,255,36*60
$GLGSV,2,2,08,70,13,331,35,88,13,079,37,87,08,034,36,81,02,125,*6F
$QZGSV,1,1,01,02,80,041,37*5F
$BDGSV,2,1,08,209,75,277,35,207,69,254,11,206,68,177,,203,42,205,29*67
$BDGSV,2,2,08,202,27,236,27,205,08,255,34,217,,,,204,34,133,*59
$GAGSV,2,1,06,103,73,222,,102,50,253,,108,36,311,,105,30,157,*60
$GAGSV,2,2,06,112,02,059,,130,01,239,*69
$GPGSA,A,3,03,10,12,14,22,25,26,29,31,32,,,2.0,1.5,1.3*39
$GNGSA,A,3,03,10,12,14,22,25,26,29,31,32,,,2.0,1.5,1.3*27
$GNGSA,A,3,68,69,70,79,80,87,88,,,,,,2.0,1.5,1.3*27
$QZGSA,A,3,02,,,,,,,,,,,,2.0,1.5,1.3*28
$IMGSA,A,3,,,,,,,,,,,,,2.0,1.5,1.3*25
$BDGSA,A,3,202,203,209,,,,,,,,,,2.0,1.5,1.3*1D
$GAGSA,A,3,,,,,,,,,,,,,2.0,1.5,1.3*27
$GPRMC,084914.00,A,3727.034088,N,12639.330845,E,000.0,,281217,,,A*7F
$GPGGA,084915.00,3727.034021,N,12639.330741,E,1,21,0.4,34.0,M,17.7,M,,*54
$PGLOR,9,STA,084915.00,0.001,0.000,395,1,4,0,P,S,L,0,C,3,S,00180002,66,5,R,000833F4,TPEF,31,1233227,LC,,,*69
$GPGSV,3,1,11,32,82,112,42,14,72,327,40,25,56,050,41,31,53,297,45*7B
$GPGSV,3,2,11,29,27,113,44,26,26,218,38,10,22,193,36,22,19,308,44*79
$GPGSV,3,3,11,12,17,042,44,03,07,324,38,18,01,173,*4D
$GLGSV,2,1,08,69,64,292,35,79,62,331,39,68,48,181,38,80,22,255,36*63
$GLGSV,2,2,08,70,13,331,35,88,13,079,37,87,08,034,39,81,02,125,*60
$QZGSV,1,1,01,02,80,041,39*51
$BDGSV,2,1,08,209,75,277,34,207,69,254,11,206,68,177,,203,42,205,28*67
$BDGSV,2,2,08,202,27,236,27,205,08,255,34,217,,,,204,34,133,*59
$GAGSV,2,1,06,103,73,222,,102,50,253,,108,36,311,,105,30,157,*60
$GAGSV,2,2,06,112,02,059,,130,01,239,*69
$GPGSA,A,3,03,10,12,14,22,25,26,29,31,32,,,1.6,1.1,1.1*3A
$GNGSA,A,3,03,10,12,14,22,25,26,29,31,32,,,1.6,1.1,1.1*24
$GNGSA,A,3,68,69,70,79,80,87,88,,,,,,1.6,1.1,1.1*24
$QZGSA,A,3,02,,,,,,,,,,,,1.6,1.1,1.1*2B
$IMGSA,A,3,,,,,,,,,,,,,1.6,1.1,1.1*26
$BDGSA,A,3,202,203,209,,,,,,,,,,1.6,1.1,1.1*1E
$GAGSA,A,3,,,,,,,,,,,,,1.6,1.1,1.1*24
$GPRMC,084915.00,A,3727.034021,N,12639.330741,E,000.0,,281217,,,A*76
$GPGGA,084916.00,3727.033953,N,12639.330632,E,1,20,0.4,34.0,M,17.7,M,,*58
$PGLOR,9,STA,084916.00,0.001,0.000,395,1,4,0,P,S,L,0,C,3,S,00180002,66,5,R,000833F4,TPEF,31,1234227,LC,,,*6D
$GPGSV,3,1,11,32,82,112,41,14,72,327,40,25,56,050,41,31,53,297,45*78
$GPGSV,3,2,11,29,27,113,44,26,26,218,42,10,22,193,37,22,19,308,44*75
$GPGSV,3,3,11,12,17,042,44,03,07,324,37,18,01,173,*42
$GLGSV,2,1,08,69,64,292,35,79,62,331,38,68,48,181,37,80,22,255,35*6E
$GLGSV,2,2,08,70,13,331,34,88,13,079,37,87,08,034,39,81,02,125,*61
$QZGSV,1,1,01,02,80,041,38*50
$BDGSV,2,1,08,209,75,277,34,207,69,254,,206,68,177,,203,42,205,*6D
$BDGSV,2,2,08,202,27,236,30,205,08,255,33,217,,,,204,34,133,*58
$GAGSV,2,1,06,103,73,222,,102,50,253,,108,36,311,,105,30,157,*60
$GAGSV,2,2,06,112,02,059,,130,01,239,*69
$GPGSA,A,3,03,10,12,14,22,25,26,29,31,32,,,1.8,1.2,1.3*35
$GNGSA,A,3,03,10,12,14,22,25,26,29,31,32,,,1.8,1.2,1.3*2B
$GNGSA,A,3,68,69,70,79,80,87,88,,,,,,1.8,1.2,1.3*2B
$QZGSA,A,3,02,,,,,,,,,,,,1.8,1.2,1.3*24
$IMGSA,A,3,,,,,,,,,,,,,1.8,1.2,1.3*29
$BDGSA,A,3,202,209,,,,,,,,,,,1.8,1.2,1.3*20
$GAGSA,A,3,,,,,,,,,,,,,1.8,1.2,1.3*2B
$GPRMC,084916.00,A,3727.033953,N,12639.330632,E,000.1,,281217,,,A*7A
$GPGGA,084917.00,3727.033824,N,12639.330430,E,1,23,0.4,34.0,M,17.7,M,,*5B
$PGLOR,9,STA,084917.00,0.001,0.000,394,1,4,0,P,S,L,0,C,3,S,00180002,66,5,R,000833F4,TPEF,31,1235227,LC,,,*6C
$GPGSV,3,1,11,32,82,112,41,14,72,327,39,25,56,050,41,31,53,297,45*76
$GPGSV,3,2,11,29,27,113,44,26,26,218,43,10,22,193,37,22,19,308,44*74
$GPGSV,3,3,11,12,17,042,43,03,07,324,37,18,01,173,*45
$GLGSV,2,1,08,69,64,292,35,79,62,331,38,68,48,181,36,80,22,255,34*6E
$GLGSV,2,2,08,70,13,331,34,88,13,079,37,87,08,034,39,81,02,125,*61
$QZGSV,1,1,01,02,80,041,37*5F
$BDGSV,2,1,07,209,75,277,33,207,69,254,10,206,68,177,,203,42,205,26*60
$BDGSV,2,2,07,202,27,236,30,205,08,255,33,204,34,133,*63
$GAGSV,2,1,06,103,73,222,,102,50,253,,108,36,311,21,105,30,157,17*65
$GAGSV,2,2,06,112,02,059,,130,01,239,*69
$GPGSA,A,3,03,10,12,14,22,25,26,29,31,32,,,1.4,1.0,1.0*38
$GNGSA,A,3,03,10,12,14,22,25,26,29,31,32,,,1.4,1.0,1.0*26
$GNGSA,A,3,68,69,70,79,80,87,88,,,,,,1.4,1.0,1.0*26
$QZGSA,A,3,02,,,,,,,,,,,,1.4,1.0,1.0*29
$IMGSA,A,3,,,,,,,,,,,,,1.4,1.0,1.0*24
$BDGSA,A,3,202,203,209,,,,,,,,,,1.4,1.0,1.0*1C
$GAGSA,A,3,105,108,,,,,,,,,,,1.4,1.0,1.0*2B
$GPRMC,084917.00,A,3727.033824,N,12639.330430,E,000.1,,281217,,,A*7A
$GPGGA,084918.00,3727.033778,N,12639.330362,E,1,23,0.4,34.0,M,17.7,M,,*52
$PGLOR,9,STA,084918.00,0.001,0.000,394,1,4,0,P,S,L,0,C,3,S,00180002,66,5,R,000833F4,TPEF,31,1236227,LC,,,*60
$GPGSV,3,1,11,32,82,112,40,14,72,327,39,25,56,050,41,31,53,297,45*77
$GPGSV,3,2,11,29,27,113,44,26,26,218,43,10,22,193,37,22,19,308,44*74
$GPGSV,3,3,11,12,17,042,43,03,07,324,38,18,01,173,*4A
$GLGSV,2,1,08,69,64,292,35,79,62,331,37,68,48,181,35,80,22,255,33*65
$GLGSV,2,2,08,70,13,331,33,88,13,079,37,87,08,034,38,81,02,125,*67
$QZGSV,1,1,01,02,80,041,36*5E
$BDGSV,2,1,07,209,75,277,33,207,69,254,12,206,68,177,,203,42,205,26*62
$BDGSV,2,2,07,202,27,236,29,205,08,255,33,204,34,133,*6B
$GAGSV,2,1,06,103,73,222,,102,50,253,,108,36,311,20,105,30,157,*62
$GAGSV,2,2,06,112,02,059,,130,01,239,*69
$GPGSA,A,3,03,10,12,14,22,25,26,29,31,32,,,1.5,1.1,1.0*38
$GNGSA,A,3,03,10,12,14,22,25,26,29,31,32,,,1.5,1.1,1.0*26
$GNGSA,A,3,68,69,70,79,80,87,88,,,,,,1.5,1.1,1.0*26
$QZGSA,A,3,02,,,,,,,,,,,,1.5,1.1,1.0*29
$IMGSA,A,3,,,,,,,,,,,,,1.5,1.1,1.0*24
$BDGSA,A,3,202,203,207,209,,,,,,,,,1.5,1.1,1.0*29
$GAGSA,A,3,108,,,,,,,,,,,,1.5,1.1,1.0*1F
$GPRMC,084918.00,A,3727.033778,N,12639.330362,E,000.0,,281217,,,A*72
$GPGGA,084919.00,3727.033784,N,12639.330247,E,1,23,0.4,34.0,M,17.7,M,,*56
$PGLOR,9,STA,084919.00,0.001,0.000,395,1,4,0,P,S,L,0,C,3,S,00180002,66,5,R,000833F4,TPEF,31,1237227,LC,,,*61
$GPGSV,3,1,11,32,82,113,40,14,72,327,39,25,56,050,40,31,53,297,45*77
$GPGSV,3,2,11,29,27,113,44,26,26,218,42,10,22,193,37,22,19,308,44*75
$GPGSV,3,3,11,12,17,042,43,03,07,324,38,18,01,173,*4A
$GLGSV,2,1,08,69,64,292,35,79,62,331,37,68,48,181,35,80,22,255,33*65
$GLGSV,2,2,08,70,13,331,33,88,13,079,37,87,08,034,38,81,02,125,*67
$QZGSV,1,1,01,02,80,041,36*5E
$BDGSV,2,1,07,209,75,277,32,207,69,254,12,206,68,177,,203,42,205,26*63
$BDGSV,2,2,07,202,27,236,30,205,08,255,33,204,34,133,*63
$GAGSV,2,1,06,103,73,222,,102,50,253,08,108,36,311,20,105,30,157,*6A
$GAGSV,2,2,06,112,02,059,,130,01,239,*69
$GPGSA,A,3,03,10,12,14,22,25,26,29,31,32,,,2.0,1.5,1.3*39
$GNGSA,A,3,03,10,12,14,22,25,26,29,31,32,,,2.0,1.5,1.3*27
$GNGSA,A,3,68,69,70,79,80,87,88,,,,,,2.0,1.5,1.3*27
$QZGSA,A,3,02,,,,,,,,,,,,2.0,1.5,1.3*28
$IMGSA,A,3,,,,,,,,,,,,,2.0,1.5,1.3*25
$BDGSA,A,3,202,203,207,209,,,,,,,,,2.0,1.5,1.3*28
$GAGSA,A,3,108,,,,,,,,,,,,2.0,1.5,1.3*1E
$GPRMC,084919.00,A,3727.033784,N,12639.330247,E,000.0,,281217,,,A*76
$GPGGA,084920.00,3727.033838,N,12639.330128,E,1,23,0.4,34.0,M,17.7,M,,*5E
$PGLOR,9,STA,084920.00,0.001,0.000,395,1,4,0,P,S,L,0,C,3,S,00180002,66,5,R,000833F4,TPEF,31,1238227,LC,,,*64
$GPGSV,3,1,11,32,82,113,40,14,72,327,38,25,56,050,40,31,53,297,44*77
$GPGSV,3,2,11,29,27,113,45,26,26,218,42,10,22,193,37,22,19,308,44*74
$GPGSV,3,3,11,12,17,042,43,03,07,324,38,18,01,173,*4A
$GLGSV,2,1,08,69,64,292,35,79,62,331,36,68,48,181,34,80,22,255,33*65
$GLGSV,2,2,08,70,13,331,33,88,13,079,37,87,08,034,38,81,02,125,*67
$QZGSV,1,1,01,02,80,041,35*5D
$BDGSV,2,1,07,209,75,277,31,207,69,254,12,206,68,177,,203,42,205,26*60
$BDGSV,2,2,07,202,27,236,30,205,08,255,33,204,34,133,*63
$GAGSV,2,1,06,103,73,222,19,102,50,253,,108,36,311,20,105,30,157,*6A
$GAGSV,2,2,06,112,02,059,,130,01,239,*69
$GPGSA,A,3,03,10,12,14,22,25,26,29,31,32,,,2.0,1.5,1.3*39
$GNGSA,A,3,03,10,12,14,22,25,26,29,31,32,,,2.0,1.5,1.3*27
$GNGSA,A,3,68,69,70,79,80,87,88,,,,,,2.0,1.5,1.3*27
$QZGSA,A,3,02,,,,,,,,,,,,2.0,1.5,1.3*28
$IMGSA,A,3,,,,,,,,,,,,,2.0,1.5,1.3*25
$BDGSA,A,3,202,203,209,,,,,,,,,,2.0,1.5,1.3*1D
$GAGSA,A,3,103,108,,,,,,,,,,,2.0,1.5,1.3*2C
$GPRMC,084920.00,A,3727.033838,N,12639.330128,E,000.2,,281217,,,A*7C
$GPGGA,084921.00,3727.033950,N,12639.329897,E,1,22,0.4,34.0,M,17.7,M,,*54
$PGLOR,9,STA,084921.00,0.001,0.000,395,1,4,0,P,S,L,0,C,3,S,00180002,66,5,R,000833F4,TPEF,31,1239227,LC,,,*64
$GPGSV,3,1,11,32,82,113,40,14,72,327,38,25,56,050,40,31,53,297,44*77
$GPGSV,3,2,11,29,27,113,45,26,26,218,42,10,22,193,37,22,19,308,45*75
$GPGSV,3,3,11,12,17,042,43,03,07,324,38,18,01,173,*4A
$GLGSV,2,1,08,69,64,292,34,79,62,331,36,68,48,181,34,80,22,255,32*65
$GLGSV,2,2,08,70,13,331,33,88,13,079,37,87,08,034,38,81,02,125,*67
$QZGSV,1,1,01,02,80,041,34*5C
$BDGSV,2,1,07,209,75,277,31,207,69,254,,206,68,177,11,203,42,205,26*63
$BDGSV,2,2,07,202,27,236,30,205,08,255,33,204,34,133,*63
$GAGSV,2,1,06,103,73,222,,102,50,253,,108,36,311,20,105,30,157,*62
$GAGSV,2,2,06,112,02,059,,130,01,239,*69
$GPGSA,A,3,03,10,12,14,22,25,26,29,31,32,,,1.5,1.0,1.1*38
$GNGSA,A,3,03,10,12,14,22,25,26,29,31,32,,,1.5,1.0,1.1*26
$GNGSA,A,3,68,69,70,79,80,87,88,,,,,,1.5,1.0,1.1*26
$QZGSA,A,3,02,,,,,,,,,,,,1.5,1.0,1.1*29
$IMGSA,A,3,,,,,,,,,,,,,1.5,1.0,1.1*24
$BDGSA,A,3,202,203,209,,,,,,,,,,1.5,1.0,1.1*1C
$GAGSA,A,3,108,,,,,,,,,,,,1.5,1.0,1.1*1F
$GPRMC,084921.00,A,3727.033950,N,12639.329897,E,000.1,,281217,,,A*74
$GPGGA,084922.00,3727.034062,N,12639.329722,E,1,23,0.4,33.9,M,17.7,M,,*56
$PGLOR,9,STA,084922.00,0.001,0.000,395,1,4,0,P,S,L,0,C,3,S,00180002,66,5,R,000833F4,TPEF,31,1240227,LC,,,*69
$GPGSV,3,1,11,32,82,113,40,14,72,327,38,25,56,050,39,31,53,297,44*79
$GPGSV,3,2,11,29,27,113,45,26,26,218,42,10,22,193,37,22,19,308,44*74
$GPGSV,3,3,11,12,17,042,43,03,07,324,38,18,01,173,*4A
$GLGSV,2,1,08,69,64,292,34,79,62,331,36,68,48,181,34,80,22,255,32*65
$GLGSV,2,2,08,70,13,331,32,88,13,079,37,87,08,034,38,81,02,125,*66
$QZGSV,1,1,01,02,80,041,34*5C
$BDGSV,2,1,07,209,75,277,30,207,69,254,,206,68,177,11,203,42,205,26*62
$BDGSV,2,2,07,202,27,236,29,205,08,255,33,204,34,133,*6B
$GAGSV,2,1,06,103,73,222,18,102,50,253,,108,36,311,19,105,30,157,*61
$GAGSV,2,2,06,112,02,059,,130,01,239,*69
$GPGSA,A,3,03,10,12,14,22,25,26,29,31,32,,,1.5,1.0,1.1*38
$GNGSA,A,3,03,10,12,14,22,25,26,29,31,32,,,1.5,1.0,1.1*26
$GNGSA,A,3,68,69,70,79,80,87,88,,,,,,1.5,1.0,1.1*26
$QZGSA,A,3,02,,,,,,,,,,,,1.5,1.0,1.1*29
$IMGSA,A,3,,,,,,,,,,,,,1.5,1.0,1.1*24
$BDGSA,A,3,202,203,209,,,,,,,,,,1.5,1.0,1.1*1C
$GAGSA,A,3,103,108,,,,,,,,,,,1.5,1.0,1.1*2D
$GPRMC,084922.00,A,3727.034062,N,12639.329722,E,000.0,,281217,,,A*78
$GPGGA,084923.00,3727.034143,N,12639.329541,E,1,22,0.4,33.9,M,17.7,M,,*53
$PGLOR,9,STA,084923.00,0.001,0.000,395,1,4,0,P,S,L,0,C,3,S,00180002,66,5,R,000833F4,TPEF,31,1241227,LC,,,*69
$GPGSV,3,1,11,32,82,113,39,14,72,327,37,25,56,050,39,31,53,297,44*78
$GPGSV,3,2,11,29,27,113,44,26,26,218,42,10,22,193,36,22,19,308,44*74
$GPGSV,3,3,11,12,17,042,42,03,07,324,38,18,01,173,*4B
$GLGSV,2,1,08,69,64,292,33,79,62,331,36,68,48,181,33,80,22,255,33*64
$GLGSV,2,2,08,70,13,331,32,88,13,079,37,87,08,034,37,81,02,125,*69
$QZGSV,1,1,01,02,80,041,33*5B
$BDGSV,2,1,07,209,75,277,30,207,69,254,11,206,68,177,,203,42,205,26*62
$BDGSV,2,2,07,202,27,236,29,205,08,255,33,204,34,133,*6B
$GAGSV,2,1,06,103,73,222,,102,50,253,,108,36,311,19,105,30,157,*68
$GAGSV,2,2,06,112,02,059,,130,01,239,*69
$GPGSA,A,3,03,10,12,14,22,25,26,29,31,32,,,1.4,0.9,1.0*30
$GNGSA,A,3,03,10,12,14,22,25,26,29,31,32,,,1.4,0.9,1.0*2E
$GNGSA,A,3,68,69,70,79,80,87,88,,,,,,1.4,0.9,1.0*2E
$QZGSA,A,3,02,,,,,,,,,,,,1.4,0.9,1.0*21
$IMGSA,A,3,,,,,,,,,,,,,1.4,0.9,1.0*2C
$BDGSA,A,3,202,203,209,,,,,,,,,,1.4,0.9,1.0*14
$GAGSA,A,3,108,,,,,,,,,,,,1.4,0.9,1.0*17
$GPRMC,084923.00,A,3727.034143,N,12639.329541,E,000.1,,281217,,,A*7D
$GPGGA,084924.00,3727.034239,N,12639.329339,E,1,23,0.4,33.9,M,17.7,M,,*52
$PGLOR,9,STA,084924.00,0.001,0.000,394,1,4,0,P,S,L,0,C,3,S,00180002,66,5,R,000833F4,TPEF,31,1242227,LC,,,*6C
$GPGSV,3,1,11,32,82,113,39,14,72,327,37,25,56,050,39,31,53,297,44*78
$GPGSV,3,2,11,29,27,113,44,26,26,218,41,10,22,193,36,22,19,308,44*77
$GPGSV,3,3,11,12,17,042,42,03,07,324,38,18,01,173,*4B
$GLGSV,2,1,08,69,64,292,33,79,62,331,36,68,48,181,32,80,22,255,34*62
$GLGSV,2,2,08,70,13,331,32,88,13,079,37,87,08,034,37,81,02,125,*69
$QZGSV,1,1,01,02,80,041,33*5B
$BDGSV,2,1,07,209,75,277,30,207,69,254,,206,68,177,,203,42,205,28*6C
$BDGSV,2,2,07,202,27,236,29,205,08,255,33,204,34,133,*6B
$GAGSV,2,1,06,103,73,222,16,102,50,253,,108,36,311,19,105,30,157,*6F
$GAGSV,2,2,06,112,02,059,,130,01,239,*69
$GPGSA,A,3,03,10,12,14,22,25,26,29,31,32,,,1.4,0.9,1.0*30
$GNGSA,A,3,03,10,12,14,22,25,26,29,31,32,,,1.4,0.9,1.0*2E
$GNGSA,A,3,68,69,70,79,80,87,88,,,,,,1.4,0.9,1.0*2E
$QZGSA,A,3,02,,,,,,,,,,,,1.4,0.9,1.0*21
$IMGSA,A,3,,,,,,,,,,,,,1.4,0.9,1.0*2C
$BDGSA,A,3,202,203,209,,,,,,,,,,1.4,0.9,1.0*14
$GAGSA,A,3,103,108,,,,,,,,,,,1.4,0.9,1.0*25
$GPRMC,084924.00,A,3727.034239,N,12639.329339,E,000.0,,281217,,,A*7C
$GPGGA,084925.00,3727.034320,N,12639.329192,E,1,23,0.4,33.9,M,17.7,M,,*59
$PGLOR,9,STA,084925.00,0.001,0.000,394,1,4,0,P,S,L,0,C,3,S,00180002,66,5,R,000833F4,TPEF,31,1243227,LC,,,*6C
$GPGSV,3,1,11,32,82,113,39,14,72,327,37,25,56,050,39,31,53,297,44*78
$GPGSV,3,2,11,29,27,113,44,26,26,218,41,10,22,193,35,22,19,308,44*74
$GPGSV,3,3,11,12,17,042,41,03,07,324,38,18,01,173,*48
$GLGSV,2,1,08,69,64,292,33,79,62,331,36,68,48,181,31,80,22,255,34*61
$GLGSV,2,2,08,70,13,331,32,88,13,079,37,87,08,034,37,81,02,125,*69
$QZGSV,1,1,01,02,80,041,33*5B
$BDGSV,2,1,07,209,75,277,30,207,69,254,10,206,68,177,,203,42,205,28*6D
$BDGSV,2,2,07,202,27,236,29,205,08,255,33,204,34,133,*6B
$GAGSV,2,1,06,103,73,222,,102,50,253,,108,36,311,18,105,30,157,13*6B
$GAGSV,2,2,06,112,02,059,,130,01,239,*69
$GPGSA,A,3,03,10,12,14,22,25,26,29,31,32,,,1.4,0.9,1.0*30
$GNGSA,A,3,03,10,12,14,22,25,26,29,31,32,,,1.4,0.9,1.0*2E
$GNGSA,A,3,68,69,70,79,80,87,88,,,,,,1.4,0.9,1.0*2E
$QZGSA,A,3,02,,,,,,,,,,,,1.4,0.9,1.0*21
$IMGSA,A,3,,,,,,,,,,,,,1.4,0.9,1.0*2C
$BDGSA,A,3,202,203,209,,,,,,,,,,1.4,0.9,1.0*14
$GAGSA,A,3,105,108,,,,,,,,,,,1.4,0.9,1.0*23
$GPRMC,084925.00,A,3727.034320,N,12639.329192,E,000.0,,281217,,,A*77
$GPGGA,084926.00,3727.034372,N,12639.329063,E,1,22,0.6,33.9,M,17.7,M,,*51
$PGLOR,9,STA,084926.00,0.001,0.000,395,1,6,0,P,S,L,0,C,3,S,00180002,66,5,R,000833F4,TPEF,31,1244227,LC,,,*6B
$GPGSV,3,1,11,32,82,113,39,14,72,327,37,25,56,050,38,31,53,297,44*79
$GPGSV,3,2,11,29,27,113,45,26,26,218,41,10,22,193,35,22,19,308,44*75
$GPGSV,3,3,11,12,17,042,41,03,07,324,37,18,01,173,*47
$GLGSV,2,1,08,69,64,291,32,79,62,331,36,68,48,181,31,80,22,255,34*63
$GLGSV,2,2,08,70,13,331,32,88,13,079,36,87,08,034,36,81,02,125,*69
$QZGSV,1,1,01,02,80,041,32*5A
$BDGSV,2,1,07,209,75,277,30,207,69,254,10,206,68,177,,203,42,205,27*62
$BDGSV,2,2,07,202,27,236,29,205,08,255,33,204,34,133,*6B
$GAGSV,2,1,06,103,73,222,,102,50,253,,108,36,311,18,105,30,157,*69
$GAGSV,2,2,06,112,02,059,,130,01,239,*69
$GPGSA,A,3,03,10,12,14,22,25,26,29,31,32,,,1.4,0.9,1.1*31
$GNGSA,A,3,03,10,12,14,22,25,26,29,31,32,,,1.4,0.9,1.1*2F
$GNGSA,A,3,68,69,70,79,80,87,88,,,,,,1.4,0.9,1.1*2F
$QZGSA,A,3,02,,,,,,,,,,,,1.4,0.9,1.1*20
$IMGSA,A,3,,,,,,,,,,,,,1.4,0.9,1.1*2D
$BDGSA,A,3,202,203,209,,,,,,,,,,1.4,0.9,1.1*15
$GAGSA,A,3,108,,,,,,,,,,,,1.4,0.9,1.1*16
$GPRMC,084926.00,A,3727.034372,N,12639.329063,E,000.1,,281217,,,A*7D
$GPGGA,084927.00,3727.034520,N,12639.328733,E,1,22,0.6,33.9,M,17.7,M,,*52
$PGLOR,9,STA,084927.00,0.001,0.000,395,1,6,0,P,S,L,0,C,3,S,00180002,66,5,R,000833F4,TPEF,31,1245227,LC,,,*6B
$GPGSV,3,1,11,32,82,113,39,14,72,327,37,25,56,050,38,31,53,297,44*79
$GPGSV,3,2,11,29,27,113,45,26,26,218,41,10,22,193,35,22,19,308,44*75
$GPGSV,3,3,11,12,17,042,41,03,07,324,37,18,01,173,*47
$GLGSV,2,1,08,69,64,291,32,79,62,332,36,68,47,181,31,80,22,255,34*6F
$GLGSV,2,2,08,70,13,331,32,88,13,079,36,87,08,034,36,81,02,124,*68
$QZGSV,1,1,01,02,80,041,32*5A
$BDGSV,2,1,07,209,75,277,29,207,69,254,,206,68,177,,203,42,205,27*6B
$BDGSV,2,2,07,202,27,236,29,205,08,255,33,204,34,133,*6B
$GAGSV,2,1,06,103,73,222,,102,50,253,,108,36,311,17,105,30,157,*66
$GAGSV,2,2,06,112,02,059,,130,01,239,*69
$GPGSA,A,3,03,10,12,14,22,25,26,29,31,32,,,1.3,0.9,1.0*37
$GNGSA,A,3,03,10,12,14,22,25,26,29,31,32,,,1.3,0.9,1.0*29
$GNGSA,A,3,68,69,70,79,80,87,88,,,,,,1.3,0.9,1.0*29
$QZGSA,A,3,02,,,,,,,,,,,,1.3,0.9,1.0*26
$IMGSA,A,3,,,,,,,,,,,,,1.3,0.9,1.0*2B
$BDGSA,A,3,202,203,209,,,,,,,,,,1.3,0.9,1.0*13
$GAGSA,A,3,108,,,,,,,,,,,,1.3,0.9,1.0*10
$GPRMC,084927.00,A,3727.034520,N,12639.328733,E,000.1,,281217,,,A*7E
$GPGGA,084928.00,3727.034611,N,12639.328573,E,1,21,0.8,33.9,M,17.7,M,,*57
$PGLOR,9,STA,084928.00,0.001,0.000,395,1,8,0,P,S,L,0,C,3,S,00180002,66,5,R,000833F4,TPEF,31,1246227,LC,,,*69
$GPGSV,3,1,11,32,82,113,38,14,72,327,37,25,56,050,37,31,53,298,44*78
$GPGSV,3,2,11,29,27,113,45,26,26,218,41,10,22,193,36,22,19,308,44*76
$GPGSV,3,3,11,12,17,042,41,03,07,324,37,18,01,173,*47
$GLGSV,2,1,08,69,64,291,32,79,62,332,36,68,47,181,31,80,22,255,34*6F
$GLGSV,2,2,08,70,13,331,31,88,13,079,36,87,08,034,36,81,02,124,*6B
$QZGSV,1,1,01,02,80,041,32*5A
$BDGSV,2,1,07,209,75,277,29,207,69,254,,206,68,177,,203,42,205,27*6B
$BDGSV,2,2,07,202,27,236,29,205,08,255,33,204,34,133,*6B
$GAGSV,2,1,06,103,73,222,,102,50,253,,108,36,311,16,105,30,157,*67
$GAGSV,2,2,06,112,02,059,,130,01,239,*69
$GPGSA,A,3,03,10,12,14,22,25,26,29,31,32,,,1.4,0.9,1.1*31
$GNGSA,A,3,03,10,12,14,22,25,26,29,31,32,,,1.4,0.9,1.1*2F
$GNGSA,A,3,68,69,70,79,80,87,88,,,,,,1.4,0.9,1.1*2F
$QZGSA,A,3,02,,,,,,,,,,,,1.4,0.9,1.1*20
$IMGSA,A,3,,,,,,,,,,,,,1.4,0.9,1.1*2D
$BDGSA,A,3,202,203,209,,,,,,,,,,1.4,0.9,1.1*15
$GAGSA,A,3,,,,,,,,,,,,,1.4,0.9,1.1*2F
$GPRMC,084928.00,A,3727.034611,N,12639.328573,E,000.1,,281217,,,A*76
$GPGGA,084929.00,3727.034696,N,12639.328348,E,1,22,0.8,33.9,M,17.7,M,,*54
$PGLOR,9,STA,084929.00,0.001,0.000,394,1,8,0,P,S,L,0,C,3,S,00180002,66,5,R,000833F4,TPEF,31,1247227,LC,,,*68
$GPGSV,3,1,11,32,82,113,38,14,72,327,38,25,56,050,37,31,53,298,44*77
$GPGSV,3,2,11,29,27,113,45,26,26,218,41,10,22,193,36,22,19,308,44*76
$GPGSV,3,3,11,12,17,042,40,03,07,324,37,18,01,173,*46
$GLGSV,2,1,08,69,64,291,31,79,62,332,37,68,47,181,31,80,22,255,34*6D
$GLGSV,2,2,08,70,13,331,31,88,13,079,36,87,08,034,36,81,02,124,*6B
$QZGSV,1,1,01,02,80,041,32*5A
$BDGSV,2,1,07,209,75,277,29,207,69,254,09,206,68,177,,203,42,205,26*63
$BDGSV,2,2,07,202,27,236,29,205,08,255,33,204,34,133,*6B
$GAGSV,2,1,06,103,73,222,,102,50,253,,108,36,311,16,105,30,157,18*6E
$GAGSV,2,2,06,112,02,059,,130,01,239,*69
$GPGSA,A,3,03,10,12,14,22,25,26,29,31,32,,,1.3,0.9,1.0*37
$GNGSA,A,3,03,10,12,14,22,25,26,29,31,32,,,1.3,0.9,1.0*29
$GNGSA,A,3,68,69,70,79,80,87,88,,,,,,1.3,0.9,1.0*29
$QZGSA,A,3,02,,,,,,,,,,,,1.3,0.9,1.0*26
$IMGSA,A,3,,,,,,,,,,,,,1.3,0.9,1.0*2B
$BDGSA,A,3,202,203,209,,,,,,,,,,1.3,0.9,1.0*13
$GAGSA,A,3,105,,,,,,,,,,,,1.3,0.9,1.0*1D
$GPRMC,084929.00,A,3727.034696,N,12639.328348,E,000.1,,281217,,,A*76
$GPGGA,084930.00,3727.034784,N,12639.328173,E,1,21,0.8,33.8,M,17.7,M,,*56
$PGLOR,9,STA,084930.00,0.001,0.000,394,1,8,0,P,S,L,0,C,3,S,00180002,66,5,R,000833F4,TPEF,31,1248227,LC,,,*6F
$GPGSV,3,1,11,32,82,113,38,14,72,327,39,25,56,050,37,31,53,298,44*76
$GPGSV,3,2,11,29,27,113,45,26,26,218,41,10,22,193,36,22,19,308,44*76
$GPGSV,3,3,11,12,17,042,40,03,07,324,37,18,01,173,*46
$GLGSV,2,1,08,69,64,291,31,79,62,332,37,68,47,181,30,80,22,255,34*6C
$GLGSV,2,2,08,70,13,331,31,88,13,079,36,87,08,034,36,81,02,124,*6B
$QZGSV,1,1,01,02,80,041,32*5A
$BDGSV,2,1,07,209,75,277,28,207,69,254,12,206,68,177,,203,42,205,26*68
$BDGSV,2,2,07,202,27,236,29,205,08,255,33,204,34,133,*6B
$GAGSV,2,1,06,103,73,222,,102,50,253,,108,36,311,15,105,30,157,*64
$GAGSV,2,2,06,112,02,059,,130,01,239,*69
$GPGSA,A,3,03,10,12,14,22,25,26,29,31,32,,,1.3,0.9,1.0*37
$GNGSA,A,3,03,10,12,14,22,25,26,29,31,32,,,1.3,0.9,1.0*29
$GNGSA,A,3,68,69,70,79,80,87,88,,,,,,1.3,0.9,1.0*29
$QZGSA,A,3,02,,,,,,,,,,,,1.3,0.9,1.0*26
$IMGSA,A,3,,,,,,,,,,,,,1.3,0.9,1.0*2B
$BDGSA,A,3,202,203,209,,,,,,,,,,1.3,0.9,1.0*13
$GAGSA,A,3,,,,,,,,,,,,,1.3,0.9,1.0*29
$GPRMC,084930.00,A,3727.034784,N,12639.328173,E,000.0,,281217,,,A*77
$GPGGA,084931.00,3727.034846,N,12639.328136,E,1,21,0.8,33.8,M,17.7,M,,*57
$PGLOR,9,STA,084931.00,0.001,0.000,395,1,8,0,P,S,L,0,C,3,S,00180002,66,5,R,000833F4,TPEF,31,1249227,LC,,,*6E
$GPGSV,3,1,11,32,82,113,38,14,72,327,39,25,56,050,37,31,53,298,44*76
$GPGSV,3,2,11,29,27,113,45,26,26,218,41,10,22,193,37,22,19,308,43*70
$GPGSV,3,3,11,12,17,042,40,03,07,324,36,18,01,173,*47
$GLGSV,2,1,08,69,64,291,31,79,62,332,37,68,47,181,30,80,22,255,34*6C
$GLGSV,2,2,08,70,13,331,30,88,13,079,36,87,08,034,36,81,02,124,*6A
$QZGSV,1,1,01,02,80,041,32*5A
$BDGSV,2,1,07,209,75,277,28,207,69,254,,206,68,177,,203,42,205,26*6B
$BDGSV,2,2,07,202,27,236,29,205,08,255,32,204,34,133,*6A
$GAGSV,2,1,06,103,73,222,,102,50,253,,108,36,311,15,105,30,157,*64
$GAGSV,2,2,06,112,02,059,,130,01,239,*69
$GPGSA,A,3,03,10,12,14,22,25,26,29,31,32,,,1.3,0.9,1.0*37
$GNGSA,A,3,03,10,12,14,22,25,26,29,31,32,,,1.3,0.9,1.0*29
$GNGSA,A,3,68,69,70,79,80,87,88,,,,,,1.3,0.9,1.0*29
$QZGSA,A,3,02,,,,,,,,,,,,1.3,0.9,1.0*26
$IMGSA,A,3,,,,,,,,,,,,,1.3,0.9,1.0*2B
$BDGSA,A,3,202,203,209,,,,,,,,,,1.3,0.9,1.0*13
$GAGSA,A,3,,,,,,,,,,,,,1.3,0.9,1.0*29
$GPRMC,084931.00,A,3727.034846,N,12639.328136,E,000.2,,281217,,,A*74
$GPGGA,084932.00,3727.035045,N,12639.327943,E,1,21,0.6,33.8,M,17.7,M,,*55
$PGLOR,9,STA,084932.00,0.001,0.000,394,1,6,0,P,S,L,0,C,3,S,00180002,66,5,R,000833F4,TPEF,31,1250227,LC,,,*6A
$GPGSV,3,1,11,32,82,113,38,14,72,327,39,25,56,050,36,31,53,298,44*77
$GPGSV,3,2,11,29,27,113,45,26,26,218,41,10,22,193,37,22,19,308,43*70
$GPGSV,3,3,11,12,17,042,40,03,07,324,36,18,01,173,*47
$GLGSV,2,1,08,69,64,291,31,79,62,332,37,68,47,181,30,80,22,256,33*68
$GLGSV,2,2,08,70,13,331,30,88,13,079,36,87,08,034,35,81,02,124,*69
$QZGSV,1,1,01,02,80,041,32*5A
$BDGSV,2,1,07,209,75,277,28,207,69,254,,206,68,177,,203,42,205,26*6B
$BDGSV,2,2,07,202,27,236,29,205,08,255,32,204,34,133,*6A
$GAGSV,2,1,06,103,73,222,,102,50,253,,108,36,311,14,105,30,157,*65
$GAGSV,2,2,06,112,02,059,,130,01,239,*69
$GPGSA,A,3,03,10,12,14,22,25,26,29,31,32,,,1.4,0.9,1.1*31
$GNGSA,A,3,03,10,12,14,22,25,26,29,31,32,,,1.4,0.9,1.1*2F
$GNGSA,A,3,68,69,70,79,80,87,88,,,,,,1.4,0.9,1.1*2F
$QZGSA,A,3,02,,,,,,,,,,,,1.4,0.9,1.1*20
$IMGSA,A,3,,,,,,,,,,,,,1.4,0.9,1.1*2D
$BDGSA,A,3,202,203,209,,,,,,,,,,1.4,0.9,1.1*15
$GAGSA,A,3,,,,,,,,,,,,,1.4,0.9,1.1*2F
$GPRMC,084932.00,A,3727.035045,N,12639.327943,E,000.1,,281217,,,A*7B
$GPGGA,084933.00,3727.035140,N,12639.327843,E,1,21,0.6,33.8,M,17.7,M,,*51
$PGLOR,9,STA,084933.00,0.001,0.000,394,1,6,0,P,S,L,0,C,3,S,00180002,66,5,R,000833F4,TPEF,31,1251227,LC,,,*6A
$GPGSV,3,1,11,32,82,113,38,14,72,327,39,25,55,050,36,31,53,298,44*74
$GPGSV,3,2,11,29,27,113,45,26,26,218,41,10,22,193,37,22,19,308,43*70
$GPGSV,3,3,11,12,17,042,39,03,07,324,35,18,01,173,*4A
$GLGSV,2,1,08,69,64,291,31,79,62,332,37,68,47,181,29,80,22,256,33*60
$GLGSV,2,2,08,70,13,331,30,88,13,079,36,87,08,034,35,81,02,124,*69
$QZGSV,1,1,01,02,80,041,31*59
$BDGSV,2,1,07,209,75,277,28,207,69,255,,206,68,177,,203,42,205,25*69
$BDGSV,2,2,07,202,27,236,30,205,08,255,32,204,34,133,*62
$GAGSV,2,1,06,103,73,222,,102,50,253,,108,36,311,14,105,30,157,*65
$GAGSV,2,2,06,112,02,059,,130,01,239,*69
$GPGSA,A,3,03,10,12,14,22,25,26,29,31,32,,,1.3,0.8,1.1*37
$GNGSA,A,3,03,10,12,14,22,25,26,29,31,32,,,1.3,0.8,1.1*29
$GNGSA,A,3,68,69,70,79,80,87,88,,,,,,1.3,0.8,1.1*29
$QZGSA,A,3,02,,,,,,,,,,,,1.3,0.8,1.1*26
$IMGSA,A,3,,,,,,,,,,,,,1.3,0.8,1.1*2B
$BDGSA,A,3,202,203,209,,,,,,,,,,1.3,0.8,1.1*13
$GAGSA,A,3,,,,,,,,,,,,,1.3,0.8,1.1*29
$GPRMC,084933.00,A,3727.035140,N,12639.327843,E,000.0,,281217,,,A*7E
$GPGGA,084934.00,3727.035159,N,12639.327803,E,1,23,0.6,33.8,M,17.7,M,,*58
$PGLOR,9,STA,084934.00,0.001,0.000,394,1,6,0,P,S,L,0,C,3,S,00180002,66,5,R,000833F4,TPEF,31,1252227,LC,,,*6E
$GPGSV,3,1,11,32,82,113,38,14,72,327,39,25,55,050,36,31,53,298,44*74
$GPGSV,3,2,11,29,27,113,45,26,26,218,41,10,22,193,37,22,19,308,43*70
$GPGSV,3,3,11,12,17,042,39,03,07,324,35,18,01,173,*4A
$GLGSV,2,1,08,69,64,291,31,79,62,332,37,68,47,181,29,80,22,256,33*60
$GLGSV,2,2,08,70,13,331,29,88,13,079,36,87,08,034,35,81,02,124,*61
$QZGSV,1,1,01,02,80,041,31*59
$BDGSV,2,1,07,209,75,277,28,207,69,255,10,206,68,177,08,203,42,205,25*60
$BDGSV,2,2,07,202,27,236,30,205,08,255,32,204,34,133,*62
$GAGSV,2,1,06,103,73,222,,102,50,253,16,108,36,311,13,105,30,157,14*60
$GAGSV,2,2,06,112,02,059,,130,01,239,*69
$GPGSA,A,3,03,10,12,14,22,25,26,29,31,32,,,1.9,1.4,1.2*33
$GNGSA,A,3,03,10,12,14,22,25,26,29,31,32,,,1.9,1.4,1.2*2D
$GNGSA,A,3,68,69,70,79,80,87,88,,,,,,1.9,1.4,1.2*2D
$QZGSA,A,3,02,,,,,,,,,,,,1.9,1.4,1.2*22
$IMGSA,A,3,,,,,,,,,,,,,1.9,1.4,1.2*2F
$BDGSA,A,3,202,203,209,,,,,,,,,,1.9,1.4,1.2*17
$GAGSA,A,3,102,105,,,,,,,,,,,1.9,1.4,1.2*2A
$GPRMC,084934.00,A,3727.035159,N,12639.327803,E,000.0,,281217,,,A*75
$GPGGA,084935.00,3727.035177,N,12639.327756,E,1,21,0.6,33.8,M,17.7,M,,*58
$PGLOR,9,STA,084935.00,0.001,0.000,395,1,6,0,P,S,L,0,C,3,S,00180002,66,5,R,000833F4,TPEF,31,1253227,LC,,,*6F
$GPGSV,3,1,11,32,82,113,37,14,72,327,39,25,55,050,36,31,53,298,44*7B
$GPGSV,3,2,11,29,27,113,45,26,26,218,41,10,22,193,37,22,19,308,43*70
$GPGSV,3,3,11,12,17,042,39,03,07,324,34,18,01,173,*4B
$GLGSV,2,1,08,69,64,291,31,79,62,332,37,68,47,181,29,80,22,256,33*60
$GLGSV,2,2,08,70,13,331,29,88,13,079,35,87,08,034,35,81,02,124,*62
$QZGSV,1,1,01,02,80,041,31*59
$BDGSV,2,1,07,209,75,277,28,207,69,255,10,206,68,177,11,203,42,205,25*68
$BDGSV,2,2,07,202,27,236,30,205,08,255,32,204,34,133,*62
$GAGSV,2,1,06,103,73,222,,102,50,253,,108,36,311,13,105,30,157,*62
$GAGSV,2,2,06,112,02,059,,130,01,239,*69
$GPGSA,A,3,03,10,12,14,22,25,26,29,31,32,,,1.9,1.4,1.2*33
$GNGSA,A,3,03,10,12,14,22,25,26,29,31,32,,,1.9,1.4,1.2*2D
$GNGSA,A,3,68,69,70,79,80,87,88,,,,,,1.9,1.4,1.2*2D
$QZGSA,A,3,02,,,,,,,,,,,,1.9,1.4,1.2*22
$IMGSA,A,3,,,,,,,,,,,,,1.9,1.4,1.2*2F
$BDGSA,A,3,202,203,209,,,,,,,,,,1.9,1.4,1.2*17
$GAGSA,A,3,,,,,,,,,,,,,1.9,1.4,1.2*2D
$GPRMC,084935.00,A,3727.035177,N,12639.327756,E,000.0,,281217,,,A*77
$GPGGA,084936.00,3727.035191,N,12639.327724,E,1,21,0.6,33.8,M,17.7,M,,*56
$PGLOR,9,STA,084936.00,0.001,0.000,395,1,6,0,P,S,L,0,C,3,S,00180002,66,5,R,000833F4,TPEF,31,1254227,LC,,,*6B
$GPGSV,3,1,11,32,82,113,37,14,72,327,39,25,55,050,36,31,53,298,44*7B
$GPGSV,3,2,11,29,27,113,45,26,26,218,41,10,22,193,37,22,19,308,42*71
$GPGSV,3,3,11,12,17,042,39,03,07,324,34,18,01,173,*4B
$GLGSV,2,1,08,69,64,291,30,79,62,332,36,68,47,181,28,80,22,256,33*61
$GLGSV,2,2,08,70,13,331,29,88,13,079,35,87,08,034,35,81,02,124,*62
$QZGSV,1,1,01,02,80,041,31*59
$BDGSV,2,1,07,209,75,277,28,207,69,255,10,206,68,177,,203,42,205,24*69
$BDGSV,2,2,07,202,27,236,30,205,08,255,32,204,34,133,*62
$GAGSV,2,1,06,103,73,222,,102,50,253,,108,36,311,,105,30,157,*60
$GAGSV,2,2,06,112,02,059,,130,01,239,*69
$GPGSA,A,3,03,10,12,14,22,25,26,29,31,32,,,1.6,1.1,1.2*39
$GNGSA,A,3,03,10,12,14,22,25,26,29,31,32,,,1.6,1.1,1.2*27
$GNGSA,A,3,68,69,70,79,80,87,88,,,,,,1.6,1.1,1.2*27
$QZGSA,A,3,02,,,,,,,,,,,,1.6,1.1,1.2*28
$IMGSA,A,3,,,,,,,,,,,,,1.6,1.1,1.2*25
$BDGSA,A,3,202,203,209,,,,,,,,,,1.6,1.1,1.2*1D
$GAGSA,A,3,,,,,,,,,,,,,1.6,1.1,1.2*27
$GPRMC,084936.00,A,3727.035191,N,12639.327724,E,000.0,,281217,,,A*79
$GPGGA,084937.00,3727.035177,N,12639.327786,E,1,21,0.6,33.8,M,17.7,M,,*57
$PGLOR,9,STA,084937.00,0.001,0.000,395,1,6,0,P,S,L,0,C,3,S,00180002,66,5,R,000833F4,TPEF,31,1255227,LC,,,*6B
$GPGSV,3,1,11,32,82,113,37,14,72,327,39,25,55,050,36,31,53,298,44*7B
$GPGSV,3,2,11,26,27,218,41,29,27,113,44,10,22,193,37,22,19,308,42*71
$GPGSV,3,3,11,12,17,042,39,03,07,324,33,18,01,173,*4C
$GLGSV,2,1,08,69,64,291,30,79,62,332,36,68,47,181,28,80,22,256,32*60
$GLGSV,2,2,08,70,13,331,29,88,13,079,35,87,08,034,34,81,02,124,*63
$QZGSV,1,1,01,02,80,041,30*58
$BDGSV,2,1,07,209,75,277,27,207,69,255,,206,68,177,,203,42,205,24*67
$BDGSV,2,2,07,202,27,236,30,205,08,255,32,204,34,133,*62
$GAGSV,2,1,06,103,73,222,,102,50,253,,108,36,311,,105,30,157,*60
$GAGSV,2,2,06,112,02,059,,130,01,239,*69
$GPGSA,A,3,03,10,12,14,22,25,26,29,31,32,,,1.4,0.9,1.1*31
$GNGSA,A,3,03,10,12,14,22,25,26,29,31,32,,,1.4,0.9,1.1*2F
$GNGSA,A,3,68,69,70,79,80,87,88,,,,,,1.4,0.9,1.1*2F
$QZGSA,A,3,02,,,,,,,,,,,,1.4,0.9,1.1*20
$IMGSA,A,3,,,,,,,,,,,,,1.4,0.9,1.1*2D
$BDGSA,A,3,202,203,209,,,,,,,,,,1.4,0.9,1.1*15
$GAGSA,A,3,,,,,,,,,,,,,1.4,0.9,1.1*2F
$GPRMC,084937.00,A,3727.035177,N,12639.327786,E,000.0,,281217,,,A*78
$GPGGA,084938.00,3727.035136,N,12639.327859,E,1,22,0.4,33.9,M,17.7,M,,*50
$PGLOR,9,STA,084938.00,0.001,0.000,395,1,4,0,P,S,L,0,C,3,S,00180002,66,5,R,000833F4,TPEF,31,1256227,LC,,,*65
$GPGSV,3,1,11,32,82,113,37,14,72,327,39,25,55,050,36,31,53,298,44*7B
$GPGSV,3,2,11,26,27,218,41,29,27,113,45,10,22,193,37,22,19,308,42*70
$GPGSV,3,3,11,12,17,042,39,03,07,324,33,18,01,173,*4C
$GLGSV,2,1,08,69,64,291,30,79,62,332,36,68,47,181,28,80,22,256,32*60
$GLGSV,2,2,08,70,13,331,29,88,13,079,35,87,08,034,34,81,02,124,*63
$QZGSV,1,1,01,02,80,041,30*58
$BDGSV,2,1,07,209,75,277,27,207,69,255,11,206,68,177,,203,42,205,24*67
$BDGSV,2,2,07,202,27,236,30,205,08,255,32,204,34,133,*62
$GAGSV,2,1,06,103,73,222,,102,50,253,14,108,36,311,,105,30,157,*65
$GAGSV,2,2,06,112,02,059,,130,01,239,*69
$GPGSA,A,3,03,10,12,14,22,25,26,29,31,32,,,1.7,1.1,1.3*39
$GNGSA,A,3,03,10,12,14,22,25,26,29,31,32,,,1.7,1.1,1.3*27
$GNGSA,A,3,68,69,70,79,80,87,88,,,,,,1.7,1.1,1.3*27
$QZGSA,A,3,02,,,,,,,,,,,,1.7,1.1,1.3*28
$IMGSA,A,3,,,,,,,,,,,,,1.7,1.1,1.3*25
$BDGSA,A,3,202,203,209,,,,,,,,,,1.7,1.1,1.3*1D
$GAGSA,A,3,102,,,,,,,,,,,,1.7,1.1,1.3*14
$GPRMC,084938.00,A,3727.035136,N,12639.327859,E,000.2,,281217,,,A*7D
$GPGGA,084939.00,3727.035043,N,12639.327927,E,1,21,0.4,33.9,M,17.7,M,,*59
$PGLOR,9,STA,084939.00,0.001,0.000,395,1,4,0,P,S,L,0,C,3,S,00180002,66,5,R,000833F4,TPEF,31,1257227,LC,,,*65
$GPGSV,3,1,11,32,82,113,38,14,72,327,39,25,55,050,36,31,53,298,45*75
$GPGSV,3,2,11,26,27,218,41,29,27,113,45,10,22,193,38,22,19,308,41*7C
$GPGSV,3,3,11,12,17,042,39,03,07,324,32,18,01,173,*4D
$GLGSV,2,1,08,69,64,291,30,79,62,332,36,68,47,181,27,80,22,256,32*6F
$GLGSV,2,2,08,70,13,331,28,88,13,079,35,87,08,034,34,81,02,124,*62
$QZGSV,1,1,01,02,80,041,30*58
$BDGSV,2,1,07,209,75,277,27,207,69,255,12,206,68,177,10,203,42,205,24*65
$BDGSV,2,2,07,202,27,236,30,205,08,255,32,204,34,133,*62
$GAGSV,2,1,06,103,73,222,,102,50,253,,108,36,311,,105,30,157,*60
$GAGSV,2,2,06,112,02,059,,130,01,239,*69
$GPGSA,A,3,03,10,12,14,22,25,26,29,31,32,,,1.6,1.0,1.2*38
$GNGSA,A,3,03,10,12,14,22,25,26,29,31,32,,,1.6,1.0,1.2*26
$GNGSA,A,3,68,69,70,79,80,87,88,,,,,,1.6,1.0,1.2*26
$QZGSA,A,3,02,,,,,,,,,,,,1.6,1.0,1.2*29
$IMGSA,A,3,,,,,,,,,,,,,1.6,1.0,1.2*24
$BDGSA,A,3,202,203,209,,,,,,,,,,1.6,1.0,1.2*1C
$GAGSA,A,3,,,,,,,,,,,,,1.6,1.0,1.2*26
$GPRMC,084939.00,A,3727.035043,N,12639.327927,E,000.0,,281217,,,A*75
$GPGGA,084940.00,3727.034948,N,12639.327967,E,1,22,0.4,33.9,M,17.7,M,,*53
$PGLOR,9,STA,084940.00,0.001,0.000,394,1,4,0,P,S,L,0,C,3,S,00180002,66,5,R,000833F4,TPEF,31,1258227,LC,,,*65
$GPGSV,3,1,11,32,82,113,38,14,72,327,39,25,55,050,36,31,53,298,45*75
$GPGSV,3,2,11,26,27,218,41,29,27,113,45,10,22,193,38,22,19,308,41*7C
$GPGSV,3,3,11,12,17,042,39,03,07,324,32,18,01,173,*4D
$GLGSV,2,1,08,69,64,291,29,79,62,332,36,68,47,181,27,80,22,256,32*67
$GLGSV,2,2,08,70,13,331,28,88,13,079,35,87,08,034,34,81,02,124,*62
$QZGSV,1,1,01,02,80,041,30*58
$BDGSV,2,1,07,209,75,277,26,207,69,255,12,206,68,177,,203,42,205,23*62
$BDGSV,2,2,07,202,27,236,30,205,08,255,32,204,34,133,*62
$GAGSV,2,1,06,103,73,222,,102,50,253,,108,36,311,,105,30,157,*60
$GAGSV,2,2,06,112,02,059,,130,01,239,*69
$GPGSA,A,3,03,10,12,14,22,25,26,29,31,32,,,1.5,1.1,1.1*39
$GNGSA,A,3,03,10,12,14,22,25,26,29,31,32,,,1.5,1.1,1.1*27
$GNGSA,A,3,68,69,70,79,80,87,88,,,,,,1.5,1.1,1.1*27
$QZGSA,A,3,02,,,,,,,,,,,,1.5,1.1,1.1*28
$IMGSA,A,3,,,,,,,,,,,,,1.5,1.1,1.1*25
$BDGSA,A,3,202,203,207,209,,,,,,,,,1.5,1.1,1.1*28
$GAGSA,A,3,,,,,,,,,,,,,1.5,1.1,1.1*27
$GPRMC,084940.00,A,3727.034948,N,12639.327967,E,000.0,,281217,,,A*7C
$GPGGA,084941.00,3727.034834,N,12639.327995,E,1,21,0.4,34.0,M,17.7,M,,*58
$PGLOR,9,STA,084941.00,0.001,0.000,394,1,4,0,P,S,L,0,C,3,S,00180002,66,5,R,000833F4,TPEF,31,1259227,LC,,,*65
$GPGSV,3,1,11,32,82,113,38,14,72,328,39,25,55,050,36,31,53,298,45*7A
$GPGSV,3,2,11,26,27,218,41,29,27,113,45,10,22,193,38,22,19,308,41*7C
$GPGSV,3,3,11,12,17,042,39,03,07,324,32,18,01,173,*4D
$GLGSV,2,1,08,69,64,291,29,79,62,332,36,68,47,181,26,80,22,256,32*66
$GLGSV,2,2,08,70,13,331,28,88,13,079,34,87,08,034,34,81,02,124,*63
$QZGSV,1,1,01,02,80,041,30*58
$BDGSV,2,1,07,209,75,277,26,207,69,255,12,206,68,177,,203,42,205,23*62
$BDGSV,2,2,07,202,27,236,30,205,08,255,32,204,34,133,*62
$GAGSV,2,1,06,103,73,222,,102,50,253,,108,36,311,,105,30,157,*60
$GAGSV,2,2,06,112,02,059,,130,01,239,*69
$GPGSA,A,3,03,10,12,14,22,25,26,29,31,32,,,2.0,1.5,1.4*3E
$GNGSA,A,3,03,10,12,14,22,25,26,29,31,32,,,2.0,1.5,1.4*20
$GNGSA,A,3,68,69,70,79,80,87,88,,,,,,2.0,1.5,1.4*20
$QZGSA,A,3,02,,,,,,,,,,,,2.0,1.5,1.4*2F
$IMGSA,A,3,,,,,,,,,,,,,2.0,1.5,1.4*22
$BDGSA,A,3,202,203,209,,,,,,,,,,2.0,1.5,1.4*1A
$GAGSA,A,3,,,,,,,,,,,,,2.0,1.5,1.4*20
$GPRMC,084941.00,A,3727.034834,N,12639.327995,E,000.0,,281217,,,A*7A
$GPGGA,084942.00,3727.034773,N,12639.327947,E,1,21,0.4,34.0,M,17.7,M,,*58
$PGLOR,9,STA,084942.00,0.001,0.000,394,1,4,0,P,S,L,0,C,3,S,00180002,66,5,R,000833F4,TPEF,31,1260227,LC,,,*6C
$GPGSV,3,1,11,32,82,113,38,14,72,328,39,25,55,050,36,31,53,298,45*7A
$GPGSV,3,2,11,26,27,218,41,29,27,113,45,10,22,193,38,22,19,308,41*7C
$GPGSV,3,3,11,12,17,042,39,03,07,324,32,18,01,173,*4D
$GLGSV,2,1,08,69,64,291,29,79,62,332,36,68,47,181,26,80,22,256,31*65
$GLGSV,2,2,08,70,13,331,28,88,13,079,34,87,08,034,34,81,02,124,*63
$QZGSV,1,1,01,02,80,041,30*58
$BDGSV,2,1,07,209,75,277,26,207,69,255,,206,68,177,11,203,42,205,23*61
$BDGSV,2,2,07,202,27,236,30,205,08,255,32,204,34,133,*62
$GAGSV,2,1,06,103,73,222,,102,50,253,,108,36,311,,105,30,157,*60
$GAGSV,2,2,06,112,02,059,,130,01,239,*69
$GPGSA,A,3,03,10,12,14,22,25,26,29,31,32,,,1.4,1.0,1.0*38
$GNGSA,A,3,03,10,12,14,22,25,26,29,31,32,,,1.4,1.0,1.0*26
$GNGSA,A,3,68,69,70,79,80,87,88,,,,,,1.4,1.0,1.0*26
$QZGSA,A,3,02,,,,,,,,,,,,1.4,1.0,1.0*29
$IMGSA,A,3,,,,,,,,,,,,,1.4,1.0,1.0*24
$BDGSA,A,3,202,203,209,,,,,,,,,,1.4,1.0,1.0*1C
$GAGSA,A,3,,,,,,,,,,,,,1.4,1.0,1.0*26
$GPRMC,084942.00,A,3727.034773,N,12639.327947,E,000.0,,281217,,,A*7A
$GPGGA,084943.00,3727.034758,N,12639.327931,E,1,23,0.4,34.0,M,17.7,M,,*53
$PGLOR,9,STA,084943.00,0.001,0.000,394,1,4,0,P,S,L,0,C,3,S,00180002,66,5,R,000833F4,TPEF,31,1261227,LC,,,*6C
$GPGSV,3,1,11,32,82,113,38,14,72,328,38,25,55,050,36,31,53,298,44*7A
$GPGSV,3,2,11,26,27,218,40,29,27,113,45,10,22,193,39,22,19,308,41*7C
$GPGSV,3,3,11,12,17,042,39,03,07,324,31,18,01,173,*4E
$GLGSV,2,1,08,69,64,291,29,79,62,332,35,68,47,181,26,80,22,256,31*66
$GLGSV,2,2,08,70,13,331,28,88,13,079,34,87,08,034,34,81,02,124,*63
$QZGSV,1,1,01,02,80,041,29*50
$BDGSV,2,1,07,209,75,277,26,207,69,255,12,206,68,177,12,203,42,205,23*61
$BDGSV,2,2,07,202,27,236,30,205,08,255,32,204,34,133,*62
$GAGSV,2,1,06,103,73,222,12,102,50,253,,108,36,311,,105,30,157,*63
$GAGSV,2,2,06,112,02,059,,130,01,239,*69
$GPGSA,A,3,03,10,12,14,22,25,26,29,31,32,,,1.4,0.9,1.1*31
$GNGSA,A,3,03,10,12,14,22,25,26,29,31,32,,,1.4,0.9,1.1*2F
$GNGSA,A,3,68,69,70,79,80,87,88,,,,,,1.4,0.9,1.1*2F
$QZGSA,A,3,02,,,,,,,,,,,,1.4,0.9,1.1*20
$IMGSA,A,3,,,,,,,,,,,,,1.4,0.9,1.1*2D
$BDGSA,A,3,202,203,206,209,,,,,,,,,1.4,0.9,1.1*21
$GAGSA,A,3,103,,,,,,,,,,,,1.4,0.9,1.1*1D
$GPRMC,084943.00,A,3727.034758,N,12639.327931,E,000.0,,281217,,,A*73
$GPGGA,084944.00,3727.034750,N,12639.327917,E,1,21,0.4,34.0,M,17.7,M,,*5A
$PGLOR,9,STA,084944.00,0.001,0.000,394,1,4,0,P,F,L,0,C,3,S,00180002,66,5,R,000833F4,TPEF,31,1262227,LC,,,*7D
$GPGSV,3,1,11,32,82,113,38,14,72,328,39,25,55,050,36,31,53,298,44*7B
$GPGSV,3,2,11,26,27,218,40,29,27,113,45,10,22,193,39,22,19,308,41*7C
$GPGSV,3,3,11,12,17,042,39,03,07,324,31,18,01,173,*4E
$GLGSV,2,1,08,69,64,291,29,79,62,332,35,68,47,181,25,80,22,256,31*65
$GLGSV,2,2,08,70,13,331,28,88,13,079,34,87,08,034,34,81,02,124,*63
$QZGSV,1,1,01,02,80,041,29*50
$BDGSV,2,1,07,209,75,277,25,207,69,255,11,206,68,177,12,203,42,205,25*67
$BDGSV,2,2,07,202,27,236,30,205,08,255,31,204,34,133,*61
$GAGSV,2,1,06,103,73,222,,102,50,253,,108,36,311,,105,30,157,*60
$GAGSV,2,2,06,112,02,059,,130,01,239,*69
$GPGSA,A,3,03,10,12,14,22,25,26,29,31,32,,,1.4,1.0,1.1*39
$GNGSA,A,3,03,10,12,14,22,25,26,29,31,32,,,1.4,1.0,1.1*27
$GNGSA,A,3,68,69,70,79,80,87,88,,,,,,1.4,1.0,1.1*27
$QZGSA,A,3,02,,,,,,,,,,,,1.4,1.0,1.1*28
$IMGSA,A,3,,,,,,,,,,,,,1.4,1.0,1.1*25
$BDGSA,A,3,202,203,209,,,,,,,,,,1.4,1.0,1.1*1D
$GAGSA,A,3,,,,,,,,,,,,,1.4,1.0,1.1*27
$GPRMC,084944.00,A,3727.034750,N,12639.327917,E,000.1,,281217,,,A*79
$GPGGA,084945.00,3727.034718,N,12639.327885,E,1,21,0.4,34.0,M,17.7,M,,*5D
$PGLOR,9,STA,084945.00,0.001,0.000,394,1,4,0,P,F,L,0,C,3,S,00180002,66,5,R,000833F4,TPEF,31,1263227,LC,,,*7D
$GPGSV,3,1,11,32,82,114,39,14,72,328,39,25,55,050,36,31,53,298,44*7D
$GPGSV,3,2,11,26,27,218,40,29,27,113,45,10,22,193,39,22,19,308,41*7C
$GPGSV,3,3,11,12,17,042,39,03,07,324,32,18,01,173,*4D
$GLGSV,2,1,08,69,64,291,29,79,62,332,35,68,47,181,25,80,22,256,31*65
$GLGSV,2,2,08,70,13,331,28,88,13,079,34,87,08,034,35,81,02,124,*62
$QZGSV,1,1,01,02,80,041,29*50
$BDGSV,2,1,07,209,75,277,25,207,69,255,,206,68,177,,203,42,205,25*64
$BDGSV,2,2,07,202,27,236,30,205,08,255,31,204,34,133,*61
$GAGSV,2,1,06,103,73,222,,102,50,253,,108,36,311,,105,30,157,*60
$GAGSV,2,2,06,112,02,059,,130,01,239,*69
$GPGSA,A,3,03,10,12,14,22,25,26,29,31,32,,,1.6,1.1,1.1*3A
$GNGSA,A,3,03,10,12,14,22,25,26,29,31,32,,,1.6,1.1,1.1*24
$GNGSA,A,3,68,69,70,79,80,87,88,,,,,,1.6,1.1,1.1*24
$QZGSA,A,3,02,,,,,,,,,,,,1.6,1.1,1.1*2B
$IMGSA,A,3,,,,,,,,,,,,,1.6,1.1,1.1*26
$BDGSA,A,3,202,203,209,,,,,,,,,,1.6,1.1,1.1*1E
$GAGSA,A,3,,,,,,,,,,,,,1.6,1.1,1.1*24
$GPRMC,084945.00,A,3727.034718,N,12639.327885,E,000.0,,281217,,,A*7F
$GPGGA,084946.00,3727.034712,N,12639.327877,E,1,22,0.4,34.0,M,17.7,M,,*5A
$PGLOR,9,STA,084946.00,0.001,0.000,395,1,4,0,P,F,L,0,C,3,S,00180002,66,5,R,000833F4,TPEF,31,1264227,LC,,,*78
$GPGSV,3,1,11,32,82,114,39,14,72,328,39,25,55,050,36,31,53,298,44*7D
$GPGSV,3,2,11,26,27,218,40,29,27,113,44,10,22,193,39,22,19,308,41*7D
$GPGSV,3,3,11,12,17,042,39,03,08,324,32,18,01,173,*42
$GLGSV,2,1,08,69,64,291,29,79,62,332,34,68,47,181,24,80,22,256,30*64
$GLGSV,2,2,08,70,13,331,28,88,13,079,34,87,08,034,34,81,02,124,*63
$QZGSV,1,1,01,02,80,041,29*50
$BDGSV,2,1,07,209,75,277,25,207,69,255,11,206,68,177,,203,42,205,24*65
$BDGSV,2,2,07,202,27,236,30,205,08,255,31,204,34,133,*61
$GAGSV,2,1,06,103,73,222,,102,50,253,,108,36,311,09,105,30,157,*69
$GAGSV,2,2,06,112,02,059,,130,01,239,*69
$GPGSA,A,3,03,10,12,14,22,25,26,29,31,32,,,1.4,1.0,1.1*39
$GNGSA,A,3,03,10,12,14,22,25,26,29,31,32,,,1.4,1.0,1.1*27
$GNGSA,A,3,68,69,70,79,80,87,88,,,,,,1.4,1.0,1.1*27
$QZGSA,A,3,02,,,,,,,,,,,,1.4,1.0,1.1*28
$IMGSA,A,3,,,,,,,,,,,,,1.4,1.0,1.1*25
$BDGSA,A,3,202,203,209,,,,,,,,,,1.4,1.0,1.1*1D
$GAGSA,A,3,,,,,,,,,,,,,1.4,1.0,1.1*27
$GPRMC,084946.00,A,3727.034712,N,12639.327877,E,000.0,,281217,,,A*7B
$GPGGA,084947.00,3727.034720,N,12639.327895,E,1,22,0.4,34.0,M,17.7,M,,*56
$PGLOR,9,STA,084947.00,0.001,0.000,395,1,4,0,P,F,L,0,C,3,S,00180002,66,5,R,000833F4,TPEF,31,1265227,LC,,,*78
$GPGSV,3,1,11,32,82,114,40,14,72,328,39,25,55,050,36,31,53,298,44*73
$GPGSV,3,2,11,26,27,218,40,29,27,113,44,10,22,193,39,22,19,308,41*7D
$GPGSV,3,3,11,12,17,042,39,03,08,324,33,18,01,173,*43
$GLGSV,2,1,08,69,64,291,29,79,62,332,34,68,47,181,24,80,22,256,30*64
$GLGSV,2,2,08,70,13,331,28,88,13,079,34,87,08,034,34,81,02,124,*63
$QZGSV,1,1,01,02,80,041,29*50
$BDGSV,2,1,07,209,75,277,25,207,69,255,11,206,68,177,,203,42,205,24*65
$BDGSV,2,2,07,202,27,236,30,205,08,255,31,204,34,133,*61
$GAGSV,2,1,06,103,73,222,,102,50,253,,108,36,311,,105,30,157,*60
$GAGSV,2,2,06,112,02,059,,130,01,239,*69
$GPGSA,A,3,03,10,12,14,22,25,26,29,31,32,,,1.5,1.0,1.1*38
$GNGSA,A,3,03,10,12,14,22,25,26,29,31,32,,,1.5,1.0,1.1*26
$GNGSA,A,3,68,69,70,79,80,87,88,,,,,,1.5,1.0,1.1*26
$QZGSA,A,3,02,,,,,,,,,,,,1.5,1.0,1.1*29
$IMGSA,A,3,,,,,,,,,,,,,1.5,1.0,1.1*24
$BDGSA,A,3,202,203,209,,,,,,,,,,1.5,1.0,1.1*1C
$GAGSA,A,3,,,,,,,,,,,,,1.5,1.0,1.1*26
$GPRMC,084947.00,A,3727.034720,N,12639.327895,E,000.0,,281217,,,A*77
$GPGGA,084948.00,3727.034720,N,12639.327894,E,1,22,0.4,34.1,M,17.7,M,,*59
$PGLOR,9,STA,084948.00,0.001,0.000,394,1,4,0,P,F,L,0,C,3,S,00180002,66,5,R,000833F4,TPEF,31,1266227,LC,,,*75
$GPGSV,3,1,11,32,82,114,41,14,72,328,40,25,55,050,36,31,53,298,44*7C
$GPGSV,3,2,11,26,27,218,40,29,27,113,44,10,22,193,40,22,19,308,41*73
$GPGSV,3,3,11,12,17,042,40,03,08,324,35,18,01,173,*4B
$GLGSV,2,1,08,69,64,291,31,79,62,332,33,68,47,181,25,80,22,256,30*6B
$GLGSV,2,2,08,70,13,331,28,88,13,079,34,87,08,034,34,81,02,124,*63
$QZGSV,1,1,01,02,80,041,28*51
$BDGSV,2,1,07,209,75,277,26,207,69,255,10,206,68,177,,203,42,205,24*67
$BDGSV,2,2,07,202,27,236,30,205,08,255,31,204,34,133,*61
$GAGSV,2,1,06,103,73,222,,102,50,253,,108,36,311,,105,30,157,*60
$GAGSV,2,2,06,112,03,059,,130,01,239,*68
$GPGSA,A,3,03,10,12,14,22,25,26,29,31,32,,,1.6,1.1,1.1*3A
$GNGSA,A,3,03,10,12,14,22,25,26,29,31,32,,,1.6,1.1,1.1*24
$GNGSA,A,3,68,69,70,79,80,87,88,,,,,,1.6,1.1,1.1*24
$QZGSA,A,3,02,,,,,,,,,,,,1.6,1.1,1.1*2B
$IMGSA,A,3,,,,,,,,,,,,,1.6,1.1,1.1*26
$BDGSA,A,3,202,203,209,,,,,,,,,,1.6,1.1,1.1*1E
$GAGSA,A,3,,,,,,,,,,,,,1.6,1.1,1.1*24
$GPRMC,084948.00,A,3727.034720,N,12639.327894,E,000.0,,281217,,,A*79
$GPGGA,084949.00,3727.034724,N,12639.327890,E,1,22,0.4,34.1,M,17.7,M,,*58
$PGLOR,9,STA,084949.00,0.001,0.000,394,1,4,0,P,F,L,0,C,3,S,00180002,66,5,R,000833F4,TPEF,31,1267227,LC,,,*75
$GPGSV,3,1,11,32,82,114,41,14,72,328,40,25,55,050,36,31,53,298,44*7C
$GPGSV,3,2,11,26,27,218,40,29,27,113,44,10,22,193,41,22,19,308,41*72
$GPGSV,3,3,11,12,17,042,40,03,08,324,35,18,01,173,*4B
$GLGSV,2,1,08,69,64,291,31,79,62,332,33,68,47,181,29,80,22,256,29*6F
$GLGSV,2,2,08,70,13,331,28,88,13,079,34,87,08,034,34,81,02,124,*63
$QZGSV,1,1,01,02,80,041,28*51
$BDGSV,2,1,07,209,75,277,26,207,69,255,10,206,68,177,,203,42,205,27*64
$BDGSV,2,2,07,202,27,236,30,205,08,255,31,204,34,133,*61
$GAGSV,2,1,06,103,73,222,,102,50,253,,108,37,311,,105,30,157,*61
$GAGSV,2,2,06,112,03,059,,130,01,239,*68
$GPGSA,A,3,03,10,12,14,22,25,26,29,31,32,,,1.5,1.0,1.1*38
$GNGSA,A,3,03,10,12,14,22,25,26,29,31,32,,,1.5,1.0,1.1*26
$GNGSA,A,3,68,69,70,79,80,87,88,,,,,,1.5,1.0,1.1*26
$QZGSA,A,3,02,,,,,,,,,,,,1.5,1.0,1.1*29
$IMGSA,A,3,,,,,,,,,,,,,1.5,1.0,1.1*24
$BDGSA,A,3,202,203,209,,,,,,,,,,1.5,1.0,1.1*1C
$GAGSA,A,3,,,,,,,,,,,,,1.5,1.0,1.1*26
$GPRMC,084949.00,A,3727.034724,N,12639.327890,E,000.0,,281217,,,A*78
$GPGGA,084950.00,3727.034730,N,12639.327880,E,1,22,0.4,34.1,M,17.7,M,,*54
$PGLOR,9,STA,084950.00,0.001,0.000,395,1,4,0,P,F,L,0,C,3,S,00180002,66,5,R,000833F4,TPEF,31,1268227,LC,,,*73
$GPGSV,3,1,11,32,82,114,42,14,72,328,40,25,55,050,36,31,53,298,44*7F
$GPGSV,3,2,11,26,27,218,40,29,27,113,44,10,22,193,41,22,19,308,41*72
$GPGSV,3,3,11,12,17,042,39,03,08,324,36,18,01,173,*46
$GLGSV,2,1,08,69,64,291,31,79,62,332,33,68,47,181,31,80,22,256,29*66
$GLGSV,2,2,08,70,13,331,28,88,13,079,34,87,08,034,34,81,02,124,*63
$QZGSV,1,1,01,02,80,041,29*50
$BDGSV,2,1,07,209,75,277,26,207,69,255,10,206,68,177,,203,42,205,27*64
$BDGSV,2,2,07,202,27,236,30,205,08,255,31,204,34,133,*61
$GAGSV,2,1,06,103,73,222,,102,50,253,,108,37,311,,105,30,157,*61
$GAGSV,2,2,06,112,03,059,,130,01,239,*68
$GPGSA,A,3,03,10,12,14,22,25,26,29,31,32,,,1.4,1.0,1.1*39
$GNGSA,A,3,03,10,12,14,22,25,26,29,31,32,,,1.4,1.0,1.1*27
$GNGSA,A,3,68,69,70,79,80,87,88,,,,,,1.4,1.0,1.1*27
$QZGSA,A,3,02,,,,,,,,,,,,1.4,1.0,1.1*28
$IMGSA,A,3,,,,,,,,,,,,,1.4,1.0,1.1*25
$BDGSA,A,3,202,203,209,,,,,,,,,,1.4,1.0,1.1*1D
$GAGSA,A,3,,,,,,,,,,,,,1.4,1.0,1.1*27
$GPRMC,084950.00,A,3727.034730,N,12639.327880,E,000.0,,281217,,,A*74
$GPGGA,084951.00,3727.034742,N,12639.327870,E,1,21,0.4,34.1,M,17.7,M,,*5C
$PGLOR,9,STA,084951.00,0.001,0.000,395,1,4,0,P,F,L,0,C,3,S,00180002,66,5,R,000833F4,TPEF,31,1269227,LC,,,*73
$GPGSV,3,1,11,32,82,114,42,14,72,328,40,25,55,050,36,31,53,298,44*7F
$GPGSV,3,2,11,26,27,218,40,29,27,113,44,10,22,193,41,22,19,308,41*72
$GPGSV,3,3,11,12,17,042,39,03,08,324,36,18,01,173,*46
$GLGSV,2,1,08,69,64,291,31,79,62,332,32,68,47,181,30,80,22,256,29*66
$GLGSV,2,2,08,70,14,331,28,88,13,079,34,87,08,034,34,81,02,124,*64
$QZGSV,1,1,01,02,80,041,29*50
$BDGSV,2,1,07,209,75,277,25,207,69,255,10,206,68,177,09,203,42,205,27*6E
$BDGSV,2,2,07,202,27,236,30,205,08,255,31,204,34,133,*61
$GAGSV,2,1,06,103,73,222,,102,50,253,10,108,37,311,,105,30,157,*60
$GAGSV,2,2,06,112,03,059,,130,01,239,*68
$GPGSA,A,3,03,10,12,14,22,25,26,29,31,32,,,1.5,1.1,1.1*39
$GNGSA,A,3,03,10,12,14,22,25,26,29,31,32,,,1.5,1.1,1.1*27
$GNGSA,A,3,68,69,70,79,80,87,88,,,,,,1.5,1.1,1.1*27
$QZGSA,A,3,02,,,,,,,,,,,,1.5,1.1,1.1*28
$IMGSA,A,3,,,,,,,,,,,,,1.5,1.1,1.1*25
$BDGSA,A,3,202,203,209,,,,,,,,,,1.5,1.1,1.1*1D
$GAGSA,A,3,,,,,,,,,,,,,1.5,1.1,1.1*27
$GPRMC,084951.00,A,3727.034742,N,12639.327870,E,000.0,,281217,,,A*7F
$GPGGA,084952.00,3727.034759,N,12639.327859,E,1,21,0.4,34.1,M,17.7,M,,*5E
$PGLOR,9,STA,084952.00,0.001,0.000,394,1,4,0,P,F,L,0,C,2,S,00180002,66,5,R,000833F4,TPEF,31,1270227,LC,,,*78
$GPGSV,3,1,11,32,82,114,42,14,72,328,41,25,55,050,36,31,53,298,44*7E
$GPGSV,3,2,11,26,27,218,40,29,27,113,44,10,22,193,41,22,19,308,41*72
$GPGSV,3,3,11,12,17,042,40,03,08,324,37,18,01,173,*49
$GLGSV,2,1,08,69,64,291,31,79,62,332,32,68,47,181,30,80,22,256,29*66
$GLGSV,2,2,08,70,14,331,28,88,13,079,34,87,08,034,34,81,02,124,*64
$QZGSV,1,1,01,02,80,041,29*50
$BDGSV,2,1,07,209,75,277,25,207,69,255,,206,68,177,,203,42,205,27*66
$BDGSV,2,2,07,202,27,236,31,205,08,255,31,204,34,133,*60
$GAGSV,2,1,06,103,73,222,,102,50,253,,108,37,311,,105,30,157,*61
$GAGSV,2,2,06,112,03,059,,130,01,239,*68
$GPGSA,A,3,03,10,12,14,22,25,26,29,31,32,,,1.6,1.0,1.2*38
$GNGSA,A,3,03,10,12,14,22,25,26,29,31,32,,,1.6,1.0,1.2*26
$GNGSA,A,3,68,69,70,79,80,87,88,,,,,,1.6,1.0,1.2*26
$QZGSA,A,3,02,,,,,,,,,,,,1.6,1.0,1.2*29
$IMGSA,A,3,,,,,,,,,,,,,1.6,1.0,1.2*24
$BDGSA,A,3,202,203,209,,,,,,,,,,1.6,1.0,1.2*1C
$GAGSA,A,3,,,,,,,,,,,,,1.6,1.0,1.2*26
$GPRMC,084952.00,A,3727.034759,N,12639.327859,E,000.0,,281217,,,A*7D
$GPGGA,084953.00,3727.034775,N,12639.327842,E,1,21,0.4,34.1,M,17.7,M,,*5B
$PGLOR,9,STA,084953.00,0.001,0.000,394,1,4,0,P,F,L,0,C,3,S,00180002,66,5,R,000833F4,TPEF,31,1271227,LC,,,*79
$GPGSV,3,1,11,32,82,114,42,14,72,328,41,25,55,050,36,31,53,298,45*7F
$GPGSV,3,2,11,26,27,218,40,29,27,113,44,10,22,193,41,22,19,308,42*71
$GPGSV,3,3,11,12,17,042,40,03,08,324,37,18,01,173,*49
$GLGSV,2,1,08,69,64,291,31,79,62,332,32,68,47,181,30,80,22,256,29*66
$GLGSV,2,2,08,70,14,331,28,88,13,079,34,87,08,034,34,81,02,124,*64
$QZGSV,1,1,01,02,80,041,30*58
$BDGSV,2,1,07,209,75,277,25,207,69,255,,206,68,177,,203,42,205,27*66
$BDGSV,2,2,07,202,27,236,31,205,08,255,31,204,34,133,*60
$GAGSV,2,1,06,103,73,222,,102,50,253,,108,37,311,,105,30,157,*61
$GAGSV,2,2,06,112,03,059,,130,01,239,*68
$GPGSA,A,3,03,10,12,14,22,25,26,29,31,32,,,1.7,1.2,1.1*38
$GNGSA,A,3,03,10,12,14,22,25,26,29,31,32,,,1.7,1.2,1.1*26
$GNGSA,A,3,68,69,70,79,80,87,88,,,,,,1.7,1.2,1.1*26
$QZGSA,A,3,02,,,,,,,,,,,,1.7,1.2,1.1*29
$IMGSA,A,3,,,,,,,,,,,,,1.7,1.2,1.1*24
$BDGSA,A,3,202,203,209,,,,,,,,,,1.7,1.2,1.1*1C
$GAGSA,A,3,,,,,,,,,,,,,1.7,1.2,1.1*26
$GPRMC,084953.00,A,3727.034775,N,12639.327842,E,000.0,,281217,,,A*78
$GPGGA,084954.00,3727.034789,N,12639.327827,E,1,21,0.4,34.1,M,17.7,M,,*5C
$PGLOR,9,STA,084954.00,0.001,0.000,394,1,4,0,P,F,L,0,C,3,S,00180002,66,5,R,000833F4,TPEF,31,1272227,LC,,,*7D
$GPGSV,3,1,11,32,82,114,43,14,72,328,41,25,55,050,36,31,53,298,45*7E
$GPGSV,3,2,11,26,27,218,40,29,27,113,44,10,22,193,41,22,19,308,42*71
$GPGSV,3,3,11,12,17,042,40,03,08,324,37,18,01,173,*49
$GLGSV,2,1,08,69,64,291,31,79,62,332,33,68,47,181,30,80,22,256,29*67
$GLGSV,2,2,08,70,14,331,28,88,13,079,35,87,08,034,33,81,02,124,*62
$QZGSV,1,1,01,02,80,041,30*58
$BDGSV,2,1,07,209,75,277,25,207,69,255,,206,68,177,09,203,42,205,27*6F
$BDGSV,2,2,07,202,27,236,33,205,08,255,31,204,34,133,*62
$GAGSV,2,1,06,103,73,222,,102,50,253,,108,37,311,,105,30,157,*61
$GAGSV,2,2,06,112,03,059,,130,01,239,*68
$GPGSA,A,3,03,10,12,14,22,25,26,29,31,32,,,1.7,1.2,1.1*38
$GNGSA,A,3,03,10,12,14,22,25,26,29,31,32,,,1.7,1.2,1.1*26
$GNGSA,A,3,68,69,70,79,80,87,88,,,,,,1.7,1.2,1.1*26
$QZGSA,A,3,02,,,,,,,,,,,,1.7,1.2,1.1*29
$IMGSA,A,3,,,,,,,,,,,,,1.7,1.2,1.1*24
$BDGSA,A,3,202,203,209,,,,,,,,,,1.7,1.2,1.1*1C
$GAGSA,A,3,,,,,,,,,,,,,1.7,1.2,1.1*26
$GPRMC,084954.00,A,3727.034789,N,12639.327827,E,000.0,,281217,,,A*7F
$GPGGA,084955.00,3727.034809,N,12639.327813,E,1,21,0.4,34.1,M,17.7,M,,*5D
$PGLOR,9,STA,084955.00,0.001,0.000,395,1,4,0,P,F,L,0,C,3,S,00180002,66,5,R,000833F4,TPEF,31,1273227,LC,,,*7C
$GPGSV,3,1,11,32,82,114,43,14,72,328,41,25,55,050,35,31,53,298,45*7D
$GPGSV,3,2,11,26,27,218,40,29,27,113,44,10,22,193,41,22,19,308,42*71
$GPGSV,3,3,11,12,17,042,41,03,08,324,37,18,00,173,*49
$GLGSV,2,1,08,69,64,291,32,79,62,332,35,68,47,181,31,80,22,256,28*62
$GLGSV,2,2,08,70,14,331,28,88,13,079,35,87,08,034,33,81,02,124,*62
$QZGSV,1,1,01,02,80,041,30*58
$BDGSV,2,1,07,209,75,277,24,207,69,255,,206,68,177,12,203,42,205,27*64
$BDGSV,2,2,07,202,27,236,34,205,08,255,31,204,34,133,*65
$GAGSV,2,1,06,103,73,222,,102,50,253,,108,37,311,,105,30,157,*61
$GAGSV,2,2,06,112,03,059,,130,01,239,*68
$GPGSA,A,3,03,10,12,14,22,25,26,29,31,32,,,1.7,1.2,1.1*38
$GNGSA,A,3,03,10,12,14,22,25,26,29,31,32,,,1.7,1.2,1.1*26
$GNGSA,A,3,68,69,70,79,80,87,88,,,,,,1.7,1.2,1.1*26
$QZGSA,A,3,02,,,,,,,,,,,,1.7,1.2,1.1*29
$IMGSA,A,3,,,,,,,,,,,,,1.7,1.2,1.1*24
$BDGSA,A,3,202,203,209,,,,,,,,,,1.7,1.2,1.1*1C
$GAGSA,A,3,,,,,,,,,,,,,1.7,1.2,1.1*26
$GPRMC,084955.00,A,3727.034809,N,12639.327813,E,000.0,,281217,,,A*7E
$GPGGA,084956.00,3727.034823,N,12639.327804,E,1,21,0.4,34.1,M,17.7,M,,*50
$PGLOR,9,STA,084956.00,0.001,0.000,395,1,4,0,P,F,L,0,C,3,S,00180002,66,5,R,000833F4,TPEF,31,1274227,LC,,,*78
$GPGSV,3,1,11,32,82,114,43,14,72,328,41,25,55,050,35,31,53,298,45*7D
$GPGSV,3,2,11,26,27,218,40,29,27,113,44,10,22,193,41,22,19,308,42*71
$GPGSV,3,3,11,12,17,042,41,03,08,324,37,18,00,173,*49
$GLGSV,2,1,08,69,64,291,32,79,62,332,36,68,47,181,32,80,22,256,28*62
$GLGSV,2,2,08,70,14,331,28,88,13,079,35,87,08,034,33,81,02,124,*62
$QZGSV,1,1,01,02,80,041,30*58
$BDGSV,2,1,07,209,75,277,24,207,69,255,,206,68,177,11,203,42,205,27*67
$BDGSV,2,2,07,202,27,236,34,205,08,255,31,204,34,133,*65
$GAGSV,2,1,06,103,73,222,,102,50,253,,108,37,311,,105,30,157,08*69
$GAGSV,2,2,06,112,03,059,,130,01,239,*68
$GPGSA,A,3,03,10,12,14,22,25,26,29,31,32,,,1.7,1.2,1.1*38
$GNGSA,A,3,03,10,12,14,22,25,26,29,31,32,,,1.7,1.2,1.1*26
$GNGSA,A,3,68,69,70,79,80,87,88,,,,,,1.7,1.2,1.1*26
$QZGSA,A,3,02,,,,,,,,,,,,1.7,1.2,1.1*29
$IMGSA,A,3,,,,,,,,,,,,,1.7,1.2,1.1*24
$BDGSA,A,3,202,203,209,,,,,,,,,,1.7,1.2,1.1*1C
$GAGSA,A,3,,,,,,,,,,,,,1.7,1.2,1.1*26
$GPRMC,084956.00,A,3727.034823,N,12639.327804,E,000.0,,281217,,,A*73
$GPGGA,084957.00,3727.034867,N,12639.327805,E,1,21,0.4,34.1,M,17.7,M,,*50
$PGLOR,9,STA,084957.00,0.001,0.000,395,1,4,0,P,F,L,0,C,3,S,00180002,66,5,R,000833F4,TPEF,31,1275227,LC,,,*78
$GPGSV,3,1,11,32,82,114,43,14,72,328,41,25,55,049,35,31,53,298,45*75
$GPGSV,3,2,11,26,27,218,40,29,27,113,44,10,22,193,41,22,19,308,42*71
$GPGSV,3,3,11,12,17,042,41,03,08,324,37,18,00,173,*49
$GLGSV,2,1,08,69,64,291,32,79,62,332,36,68,47,181,32,80,22,256,28*62
$GLGSV,2,2,08,70,14,331,28,88,13,079,35,87,08,034,33,81,02,124,*62
$QZGSV,1,1,01,02,80,041,30*58
$BDGSV,2,1,07,209,75,277,24,207,69,255,,206,68,177,11,203,42,205,27*67
$BDGSV,2,2,07,202,27,236,34,205,08,255,31,204,34,133,*65
$GAGSV,2,1,06,103,73,222,08,102,50,253,,108,37,311,,105,30,157,*69
$GAGSV,2,2,06,112,03,059,,130,01,239,*68
$GPGSA,A,3,03,10,12,14,22,25,26,29,31,32,,,1.8,1.1,1.4*31
$GNGSA,A,3,03,10,12,14,22,25,26,29,31,32,,,1.8,1.1,1.4*2F
$GNGSA,A,3,68,69,70,79,80,87,88,,,,,,1.8,1.1,1.4*2F
$QZGSA,A,3,02,,,,,,,,,,,,1.8,1.1,1.4*20
$IMGSA,A,3,,,,,,,,,,,,,1.8,1.1,1.4*2D
$BDGSA,A,3,202,203,209,,,,,,,,,,1.8,1.1,1.4*15
$GAGSA,A,3,,,,,,,,,,,,,1.8,1.1,1.4*2F
$GPRMC,084957.00,A,3727.034867,N,12639.327805,E,000.0,,281217,,,A*73
$GPGGA,084958.00,3727.034901,N,12639.327805,E,1,22,0.4,34.1,M,17.7,M,,*5D
$PGLOR,9,STA,084958.00,0.001,0.000,395,1,4,0,P,F,L,0,C,3,S,00180002,66,5,R,000833F4,TPEF,31,1276227,LC,,,*74
$GPGSV,3,1,11,32,82,114,43,14,72,328,41,25,55,049,34,31,53,298,45*74
$GPGSV,3,2,11,26,27,218,40,29,27,113,44,10,22,193,41,22,19,308,42*71
$GPGSV,3,3,11,12,17,042,41,03,08,324,37,18,00,173,*49
$GLGSV,2,1,08,69,64,291,32,79,62,332,36,68,47,181,33,80,22,256,27*6C
$GLGSV,2,2,08,70,14,331,28,88,13,079,35,87,08,034,33,81,02,124,*62
$QZGSV,1,1,01,02,80,041,30*58
$BDGSV,2,1,07,209,75,277,24,207,69,255,,206,68,177,,203,42,205,27*67
$BDGSV,2,2,07,202,27,236,34,205,08,255,31,204,34,133,*65
$GAGSV,2,1,06,103,73,222,,102,50,253,,108,37,311,,105,30,157,15*65
$GAGSV,2,2,06,112,03,059,,130,01,239,*68
$GPGSA,A,3,03,10,12,14,22,25,26,29,31,32,,,1.8,1.1,1.4*31
$GNGSA,A,3,03,10,12,14,22,25,26,29,31,32,,,1.8,1.1,1.4*2F
$GNGSA,A,3,68,69,70,79,80,87,88,,,,,,1.8,1.1,1.4*2F
$QZGSA,A,3,02,,,,,,,,,,,,1.8,1.1,1.4*20
$IMGSA,A,3,,,,,,,,,,,,,1.8,1.1,1.4*2D
$BDGSA,A,3,202,203,209,,,,,,,,,,1.8,1.1,1.4*15
$GAGSA,A,3,105,,,,,,,,,,,,1.8,1.1,1.4*1B
$GPRMC,084958.00,A,3727.034901,N,12639.327805,E,000.0,,281217,,,A*7D
$GPGGA,084959.00,3727.034930,N,12639.327810,E,1,21,0.4,34.2,M,17.7,M,,*5A
$PGLOR,9,STA,084959.00,0.001,0.000,395,1,4,0,P,F,L,0,C,3,S,00180002,66,5,R,000833F4,TPEF,31,1277227,LC,,,*74
$GPGSV,3,1,11,32,82,114,43,14,72,328,41,25,55,049,34,31,53,298,45*74
$GPGSV,3,2,11,26,27,218,40,29,27,113,44,10,22,193,41,22,19,308,42*71
$GPGSV,3,3,11,12,17,042,41,03,08,324,37,18,00,173,*49
$GLGSV,2,1,08,69,64,291,32,79,62,332,37,68,47,181,33,80,22,256,27*6D
$GLGSV,2,2,08,70,14,331,28,88,13,079,35,87,08,034,33,81,02,124,*62
$QZGSV,1,1,01,02,80,041,30*58
$BDGSV,2,1,07,209,75,277,24,207,69,255,,206,68,177,,203,42,205,27*67
$BDGSV,2,2,07,202,27,236,34,205,08,255,31,204,34,133,*65
$GAGSV,2,1,06,103,73,221,,102,50,253,,108,37,311,,105,30,157,*62
$GAGSV,2,2,06,112,03,059,,130,01,239,*68
$GPGSA,A,3,03,10,12,14,22,25,26,29,31,32,,,1.8,1.1,1.4*31
$GNGSA,A,3,03,10,12,14,22,25,26,29,31,32,,,1.8,1.1,1.4*2F
$GNGSA,A,3,68,69,70,79,80,87,88,,,,,,1.8,1.1,1.4*2F
$QZGSA,A,3,02,,,,,,,,,,,,1.8,1.1,1.4*20
$IMGSA,A,3,,,,,,,,,,,,,1.8,1.1,1.4*2D
$BDGSA,A,3,202,203,209,,,,,,,,,,1.8,1.1,1.4*15
$GAGSA,A,3,,,,,,,,,,,,,1.8,1.1,1.4*2F
$GPRMC,084959.00,A,3727.034930,N,12639.327810,E,000.0,,281217,,,A*7A
$GPGGA,085000.00,3727.034941,N,12639.327799,E,1,24,0.4,34.2,M,17.7,M,,*53
$PGLOR,9,STA,085000.00,0.001,0.000,395,1,4,0,P,F,L,0,C,3,S,00180002,66,5,R,000833F4,TPEF,31,1278227,LC,,,*7F
$GPGSV,3,1,11,32,82,114,43,14,72,328,41,25,55,049,33,31,53,298,45*73
$GPGSV,3,2,11,26,27,218,40,29,27,113,44,10,22,193,41,22,19,308,42*71
$GPGSV,3,3,11,12,17,042,41,03,08,324,37,18,00,173,*49
$GLGSV,2,1,08,69,64,291,32,79,62,332,38,68,47,181,33,80,22,256,26*63
$GLGSV,2,2,08,70,14,331,28,88,13,079,35,87,08,034,33,81,02,124,*62
$QZGSV,1,1,01,02,80,041,30*58
$BDGSV,2,1,07,209,75,277,24,207,69,255,12,206,68,177,,203,42,205,27*64
$BDGSV,2,2,07,202,27,236,34,205,08,255,31,204,34,133,*65
$GAGSV,2,1,06,103,73,221,,102,50,253,,108,37,311,,105,29,157,14*6F
$GAGSV,2,2,06,112,03,059,,130,01,239,*68
$GPGSA,A,3,03,10,12,14,22,25,26,29,31,32,,,1.7,1.2,1.1*38
$GNGSA,A,3,03,10,12,14,22,25,26,29,31,32,,,1.7,1.2,1.1*26
$GNGSA,A,3,68,69,70,79,80,87,88,,,,,,1.7,1.2,1.1*26
$QZGSA,A,3,02,,,,,,,,,,,,1.7,1.2,1.1*29
$IMGSA,A,3,,,,,,,,,,,,,1.7,1.2,1.1*24
$BDGSA,A,3,202,203,207,209,,,,,,,,,1.7,1.2,1.1*29
$GAGSA,A,3,105,,,,,,,,,,,,1.7,1.2,1.1*12
$GPRMC,085000.00,A,3727.034941,N,12639.327799,E,000.0,,281217,,,A*76
$GPGGA,085001.00,3727.034975,N,12639.327798,E,1,22,0.4,34.2,M,17.7,M,,*52
$PGLOR,9,STA,085001.00,0.001,0.000,395,1,4,0,P,F,L,0,C,3,S,00180002,66,5,R,000833F4,TPEF,31,1279227,LC,,,*7F
$GPGSV,3,1,11,32,82,114,43,14,72,328,41,25,55,049,33,31,53,298,45*73
$GPGSV,3,2,11,26,27,218,39,29,27,113,44,10,22,193,41,22,19,308,42*7F
$GPGSV,3,3,11,12,17,042,41,03,08,324,37,18,00,173,*49
$GLGSV,2,1,08,69,64,291,31,79,62,332,38,68,47,181,33,80,22,256,26*60
$GLGSV,2,2,08,70,14,331,28,88,13,079,35,87,08,034,32,81,02,124,*63
$QZGSV,1,1,01,02,80,041,29*50
$BDGSV,2,1,07,209,75,277,24,207,69,255,12,206,68,177,,203,42,205,27*64
$BDGSV,2,2,07,202,27,236,34,205,08,255,31,204,34,133,*65
$GAGSV,2,1,06,103,73,221,,102,50,253,11,108,37,311,,105,29,157,*6A
$GAGSV,2,2,06,112,03,059,,130,01,239,*68
$GPGSA,A,3,03,10,12,14,22,25,26,29,31,32,,,1.8,1.1,1.4*31
$GNGSA,A,3,03,10,12,14,22,25,26,29,31,32,,,1.8,1.1,1.4*2F
$GNGSA,A,3,68,69,70,79,80,87,88,,,,,,1.8,1.1,1.4*2F
$QZGSA,A,3,02,,,,,,,,,,,,1.8,1.1,1.4*20
$IMGSA,A,3,,,,,,,,,,,,,1.8,1.1,1.4*2D
